station_seqnum,metro_id,Nazwa_stacji,longitude,latitude,who_entered,country_seqnum,source_seqnum,use_index,station_id
1420001,210,RESKO-SMÓLSKO,15.41472222,53.77166667,7,221,118,1,353150210
1420002,1201,DARŁOWO,16.38333333,54.45,7,221,118,1,254160020
1420003,1202,MIASTKO,16.98333333,54.01666667,7,221,118,1,254160110
1420004,1302,KARŻNICZKA,17.23333333,54.48333333,7,221,118,1,254170040
1420005,1303,SŁUPSK,17.0,54.46666667,7,221,118,1,254179998
1420006,1304,CZARNA DĄBRÓWKA,17.56666667,54.35,7,221,118,1,254179996
1420007,1305,KOŚCIERZYNA,17.96666667,54.13333333,7,221,118,1,254170140
1420008,1350,SŁUPSK,17.1,54.48333333,7,221,118,1,254179999
1420009,1351,BORUCINO,17.99111111,54.25333333,7,221,118,1,254170210
1420010,1402,GDYNIA,18.56666667,54.51666667,7,221,118,1,254180060
1420011,1404,GDAŃSK-ŚWIBNO,18.93333333,54.33333333,7,221,118,1,254180110
1420012,1407,GDAŃSK-RĘBIECHOWO,18.46666667,54.38333333,7,221,118,1,254180090
1420013,1408,GDAŃSK-WRZESZCZ,18.6,54.38333333,7,221,118,1,254189999
1420014,1503,KMIECIN,19.16666667,54.18333333,7,221,118,1,254190120
1420015,1505,FROMBORK,19.68333333,54.36666667,7,221,118,1,254190050
1420016,1550,LIPOWINA,19.98333333,54.35,7,221,118,1,254199995
1420017,1601,LIDZBARK WARMIŃSKI,20.6,54.13333333,7,221,118,1,254200080
1420018,1801,GOŁDAP,22.31666667,54.31666667,7,221,118,1,254220030
1420019,2003,LIPNIK (LIPKI),14.96666667,53.35,7,221,118,1,253149998
1420020,2004,GOLENIÓW,14.89305556,53.59305556,7,221,118,1,253140060
1420021,2102,PRZELEWICE,15.08333333,53.1,7,221,118,1,253150190
1420022,2201,POŁCZYN-ZDRÓJ,16.08333333,53.76666667,7,221,118,1,253169997
1420023,2202,WIERZCHOWO,16.11666667,53.46666667,7,221,118,1,253160090
1420024,2401,RADOSTOWO,18.75,53.98333333,7,221,118,1,253180020
1420025,2402,ŚLIWICE,18.18333333,53.7,7,221,118,1,253180090
1420026,2403,GRUDZIĄDZ,18.71666667,53.43333333,7,221,118,1,253180150
1420027,2404,KOŃCZEWICE,18.55,53.18333333,7,221,118,1,253189992
1420028,2450,BYDGOSZCZ,18.05,53.16666667,7,221,118,1,253180220
1420029,2502,DOBROCIN,19.83333333,53.91666667,7,221,118,1,253190030
1420030,2503,PRABUTY,19.21666667,53.73333333,7,221,118,1,253190070
1420031,2505,LIDZBARK,19.83333333,53.25,7,221,118,1,253190220
1420032,2601,BISKUPIEC,20.98333333,53.85,7,221,118,1,253209997
1420033,2701,NIKUTOWO,21.3,53.83333333,7,221,118,1,253219996
1420034,2703,ZAWODZIE,21.4,53.38333333,7,221,118,1,253219998
1420035,2705,ŚWIĘTAJNO,21.22777778,53.56333333,7,221,118,1,253210370
1420036,2750,MYSZYNIEC,21.35,53.38333333,7,221,118,1,253210210
1420037,2804,MARIANOWO,22.1,53.21666667,7,221,118,1,253220180
1420038,3101,GORZYŃ,15.9,52.56666667,7,221,118,1,252150120
1420039,3104,LUBINICKO-ŚWIEBODZIN,15.55,52.25,7,221,118,1,252150180
1420040,3202,KRZYŻ,15.98333333,52.88333333,7,221,118,1,252150050
1420041,3203,SZAMOTUŁY-BABORÓWKO,16.63333333,52.58333333,7,221,118,1,252160110
1420042,3204,PAPROĆ,16.18333333,52.3,7,221,118,1,252160160
1420043,3205,JEZIORY,16.8,52.26666667,7,221,118,1,252169996
1420044,3206,WIELICHOWO,16.35,52.11666667,7,221,118,1,252160230
1420045,3303,GNIEZNO,17.56666667,52.55,7,221,118,1,252170110
1420046,3304,SŁUPCA,17.86666667,52.28333333,7,221,118,1,252170190
1420047,3401,CIECHOCINEK,18.8,52.88333333,7,221,118,1,252189999
1420048,3402,INOWROCŁAW,18.23333333,52.8,7,221,118,1,252189998
1420049,3501,GŁODOWO,19.23333333,52.83333333,7,221,118,1,252190030
1420050,3506,OSTROWY,19.16666667,52.3,7,221,118,1,252199997
1420051,3508,TOPOLA-BŁONIE,19.18333333,52.08333333,7,221,118,1,252199995
1420052,3602,POŚWIĘTNE,20.38333333,52.63333333,7,221,118,1,252200060
1420053,3607,KAWĘCZYN,20.35,52.16666667,7,221,118,1,252209996
1420054,3704,WARSZAWA-OBSERWATORIUM,21.03333333,52.21666667,7,221,118,1,252210160
1420055,3801,SZEPIETOWO,22.55,52.85,7,221,118,1,252220030
1420056,3901,BIELSK PODLASKI,23.16666667,52.76666667,7,221,118,1,252239998
1420057,3903,BIAŁA PODLASKA,23.08333333,52.03333333,7,221,118,1,252239995
1420058,4101,GRABIK,15.11666667,51.65,7,221,118,1,251150080
1420059,4104,TOMASZÓW BOLESŁAWIECKI,15.68333333,51.28333333,7,221,118,1,251150180
1420060,4106,ZGORZELEC,15.02638889,51.13555556,7,221,118,1,251150250
1420061,4150,PASTERZOWICE,15.56666667,51.6,7,221,118,1,251159997
1420062,4202,POLKOWICE DOLNE,16.05,51.5,7,221,118,1,251160150
1420063,4205,KWIETNO,16.46666667,51.18333333,7,221,118,1,251169996
1420064,4250,CHWAŁKOWICE,16.61388889,51.44888889,7,221,118,1,251160170
1420065,4301,WITASZYCE,17.55,51.95,7,221,118,1,251170030
1420066,4303,GRABOWNICA,17.45,51.46666667,7,221,118,1,251170150
1420067,4304,NAMYSŁÓW,17.73333333,51.08333333,7,221,118,1,251170290
1420068,4350,JELCZ-LASKOWICE,17.35,51.05,7,221,118,1,251170320
1420069,4351,WOLA KSIĄŻĘCA,17.58916667,53.96138889,7,221,118,1,251170380
1420070,4401,SIERADZ,18.7,51.6,7,221,118,1,251180090
1420071,4404,SIERADZ-DZIGORZEW,18.70472222,51.62416667,7,221,118,1,251180350
1420072,4502,STRZELNA,19.9,51.81666667,7,221,118,1,251199997
1420073,4601,SKIERNIEWICE,20.16666667,51.96666667,7,221,118,1,251200030
1420074,4605,ŁAZISKA,20.91666667,51.33333333,7,221,118,1,251200150
1420075,4705,PUŁAWY,21.96666667,51.41666667,7,221,118,1,251210120
1420076,4706,OPOLE LUBELSKIE,21.93333333,51.13333333,7,221,118,1,251219997
1420077,4708,RADOM,21.11666667,51.41666667,7,221,118,1,251219999
1420078,4801,RADZYŃ PODLASKI,22.6,51.76666667,7,221,118,1,251229999
1420079,4803,NOWA WIEŚ,22.75,51.45,7,221,118,1,251229998
1420080,4902,BEZEK,23.26666667,51.18333333,7,221,118,1,251230120
1420081,5001,BOGATYNIA,14.98333333,50.9,7,221,118,1,250140030
1420082,5101,ŚWIERADÓW-ZDRÓJ,15.33333333,50.9,7,221,118,1,250150090
1420083,5102,CIEPLICE ŚLĄSKIE-ZDRÓJ,15.68333333,50.86666667,7,221,118,1,250159998
1420084,5103,SZKLARSKA PORĘBA,15.53333333,50.83333333,7,221,118,1,250150150
1420085,5105,KARPACZ,15.78333333,50.78333333,7,221,118,1,250150220
1420086,5106,PAPROTKI,15.95,50.73333333,7,221,118,1,250150250
1420087,5150,JAKUSZYCE,15.45,50.81666667,7,221,118,1,250150170
1420088,5151,ŚWIERADÓW ZDRÓJ,15.32555556,50.90611111,7,221,118,1,250150530
1420089,5203,SZCZAWNO-ZDRÓJ,16.23333333,50.8,7,221,118,1,250160130
1420090,5205,TARNÓW,16.8,50.58333333,7,221,118,1,250160360
1420091,5208,LĄDEK-ZDRÓJ,16.88333333,50.35,7,221,118,1,250160520
1420092,5211,DŁUGOPOLE-ZDRÓJ,16.63333333,50.25,7,221,118,1,250160590
1420093,5250,PSZENNO,16.55,50.85,7,221,118,1,250160090
1420094,5252,BOLESŁAWÓW,16.88333333,50.25,7,221,118,1,250160610
1420095,5254,SŁOSZÓW,16.37972222,50.41,7,221,118,1,250160480
1420096,5255,ŚNIEŻNIK,16.8325,50.20833333,7,221,118,1,250160970
1420097,5302,DOBROGOSZCZ,17.01666667,50.76666667,7,221,118,1,250170110
1420098,5303,GRODKÓW,17.4,50.68333333,7,221,118,1,250170140
1420099,5304,KORFANTÓW,17.6,50.48333333,7,221,118,1,250170240
1420100,5305,OTMUCHÓW,17.16666667,50.46666667,7,221,118,1,250170250
1420101,5307,PRUDNIK,17.56666667,50.31666667,7,221,118,1,250170320
1420102,5308,GŁUCHOŁAZY,17.38333333,50.3,7,221,118,1,250170330
1420103,5309,GŁUBCZYCE,17.8,50.18333333,7,221,118,1,250170390
1420104,5350,ŁOSIÓW,17.55,50.78333333,7,221,118,1,250179998
1420105,5352,KORFANTÓW II,17.61277778,50.475,7,221,118,1,250170750
1420106,5401,STARE OLESNO,18.03388889,50.08444444,7,221,118,1,250180030
1420107,5402,LUBLINIEC,18.7,50.68333333,7,221,118,1,250189996
1420108,5403,GÓRA ŚW.ANNY,18.16666667,50.45,7,221,118,1,250189993
1420109,5404,ŚWIERKLANIEC,18.95,50.43333333,7,221,118,1,250180270
1420110,5407,SUKOWICE,18.16666667,50.26666667,7,221,118,1,250180380
1420111,5408,RYBNIK,18.55,50.1,7,221,118,1,250180520
1420112,5409,PSZCZYNA,18.91666667,50.0,7,221,118,1,249180010
1420113,5450,PŁUŻNICZKA,18.5,50.45,7,221,118,1,250189990
1420114,5502,SZCZEKOCINY,19.8,50.63333333,7,221,118,1,250199990
1420115,5505,ZĄBKOWICE,19.28333333,50.36666667,7,221,118,1,250190250
1420116,5506,OLEWIN,19.6025,50.2775,7,221,118,1,250190290
1420117,5508,BIERUŃ STARY,19.1,50.08333333,7,221,118,1,250190380
1420118,5511,KRAKÓW-OBSERWATORIUM,19.96666667,50.06666667,7,221,118,1,250190390
1420119,5553,TROKS,19.63611111,50.3025,7,221,118,1,250190850
1420120,5601,BODZENTYN,20.95,50.95,7,221,118,1,250200040
1420121,5602,SKRONIÓW,20.26666667,50.63333333,7,221,118,1,250200120
1420122,5604,MIECHÓW,20.03333333,50.36666667,7,221,118,1,250200210
1420123,5605,SIELEC,20.41666667,50.31666667,7,221,118,1,250200220
1420124,5606,BORUSOWA,20.8,50.28333333,7,221,118,1,250200230
1420125,5608,IGOŁOMIA,20.26666667,50.1,7,221,118,1,250200280
1420126,5609,WIELICZKA,20.05,50.0,7,221,118,1,250200310
1420127,5708,CHORZELÓW,21.45,50.35,7,221,118,1,250210180
1420128,5709,KOLBUSZOWA,21.8,50.23333333,7,221,118,1,250219988
1420129,5751,ZAWADA,21.48333333,50.06666667,7,221,118,1,250210240
1420130,5802,JAROCIN,22.3,50.56666667,7,221,118,1,250220120
1420131,5805,LEŻAJSK,22.41666667,50.25,7,221,118,1,250229995
1420132,5850,MIROCIN,22.56666667,50.03333333,7,221,118,1,250229991
1420133,5904,LUBACZÓW,23.13333333,50.15,7,221,118,1,250239994
1420134,6402,ZABORZE,18.8,49.86666667,7,221,118,1,249189990
1420135,6403,CIESZYN,18.63333333,49.75,7,221,118,1,249180130
1420136,6404,WISŁA,18.86666667,49.65,7,221,118,1,249180230
1420137,6408,ISTEBNA-KUBALONKA,18.9,49.6,7,221,118,1,249180260
1420138,6452,CIESZYN,18.60583333,49.7725,7,221,118,1,249180550
1420139,6501,LIBERTÓW,19.9,49.96666667,7,221,118,1,249190030
1420140,6507,MAKÓW PODHALAŃSKI,19.68333333,49.73333333,7,221,118,1,249190190
1420141,6509,ŻYWIEC,19.23333333,49.71666667,7,221,118,1,249199992
1420142,6510,NOWY DWÓR,19.16666667,49.65,7,221,118,1,249190330
1420143,6512,RABKA,19.96666667,49.61666667,7,221,118,1,249190370
1420144,6513,ZAWOJA,19.51666667,49.61666667,7,221,118,1,249190350
1420145,6515,STAŃCOWA,19.55,49.53333333,7,221,118,1,249199987
1420146,6517,SIENIAWA,19.91666667,49.53333333,7,221,118,1,249199986
1420147,6519,CZARNY DUNAJEC,19.85,49.45,7,221,118,1,249199984
1420148,6522,ANTAŁÓWKA,19.98333333,49.3,7,221,118,1,249199978
1420149,6525,POLANA CHOCHOŁOWSKA,19.78333333,49.23333333,7,221,118,1,249190670
1420150,6526,HALA ORNAK,19.86666667,49.23333333,7,221,118,1,249190680
1420151,6551,LALIKI,19.01666667,49.55,7,221,118,1,249190480
1420152,6601,BOCHNIA,20.4,49.98333333,7,221,118,1,249209999
1420153,6602,JODŁOWNIK,20.25,49.78333333,7,221,118,1,249200110
1420154,6603,CIĘŻKOWICE,20.08583333,49.03527778,7,221,118,1,249209992
1420155,6604,ROŻNÓW,20.68333333,49.76666667,7,221,118,1,249209991
1420156,6606,ZBYSZYCE,20.66666667,49.7,7,221,118,1,249209987
1420157,6614,ŁABOWA,20.86666667,49.53333333,7,221,118,1,249209971
1420158,6616,ŁOPUSZNA,20.13333333,49.48333333,7,221,118,1,249200320
1420159,6618,KROŚCIENKO,20.43333333,49.45,7,221,118,1,249200370
1420160,6619,PIWNICZNA,20.7,49.43333333,7,221,118,1,249200410
1420161,6620,SZCZAWNICA,20.5,49.43333333,7,221,118,1,249209977
1420162,6622,CZORSZTYN-NADZAMCZE,20.33333333,49.43333333,7,221,118,1,249209978
1420163,6623,KRYNICA,20.96666667,49.41666667,7,221,118,1,249200470
1420164,6626,BUKOWINA TATRZAŃSKA,20.11666667,49.35,7,221,118,1,249200480
1420165,6631,ŁYSA POLANA,20.11666667,49.26666667,7,221,118,1,249200530
1420166,6632,HALA GĄSIENICOWA,20.00583333,49.24416667,7,221,118,1,249200540
1420167,6634,MORSKIE OKO,20.07111111,49.20194444,7,221,118,1,249200910
1420168,6650,JASTRZĘBIA,20.9,49.78333333,7,221,118,1,249200130
1420169,6651,DOBCZYCE,20.06666667,49.88333333,7,221,118,1,249200070
1420170,6704,KROSNO,21.75,49.68333333,7,221,118,1,249219993
1420171,6705,DUKLA,21.68333333,49.56666667,7,221,118,1,249210140
1420172,6707,WYSOWA,21.18333333,49.43333333,7,221,118,1,249210230
1420173,6708,BARWINEK,21.68333333,49.43333333,7,221,118,1,249210240
1420174,6803,BIRCZA,22.48333333,49.68333333,7,221,118,1,249220060
1420175,6812,TERKA,22.43333333,49.3,7,221,118,1,249220210
1420176,91001,WRZOSOWO,14.81666667,54.01666667,7,221,118,1,254149999
1420177,91101,TRZEBIATÓW,15.26666667,54.06666667,7,221,118,1,254150020
1420178,91105,MIECHĘCINO,15.75,54.11666667,7,221,118,1,254159999
1420179,91150,DYGOWO,15.71666667,54.13333333,7,221,118,1,254150010
1420180,91202,GRZYBNICA,16.45,54.05,7,221,118,1,254160090
1420181,91207,POLANÓW,16.68333333,54.11666667,7,221,118,1,254160080
1420182,91211,SIERAKOWO,16.51666667,54.21666667,7,221,118,1,254160060
1420183,91212,KRĄG,16.7,54.21666667,7,221,118,1,254160070
1420184,91214,MIELNO,16.05,54.25,7,221,118,1,254160050
1420185,91218,JEŻYCZKI,16.4,54.33333333,7,221,118,1,254160040
1420186,91219,SŁAWNO,16.66666667,54.35,7,221,118,1,254160030
1420187,91252,BRUSKOWO MAŁE,16.88333333,54.48333333,7,221,118,1,254160010
1420188,91253,SŁUPSK II,16.99777778,54.47083333,7,221,118,1,254160120
1420189,91305,SOMINY,17.65,54.03333333,7,221,118,1,254170160
1420190,91308,KARPNO,17.8,54.11666667,7,221,118,1,254170150
1420191,91309,ŁOBZOWO,17.23333333,54.13333333,7,221,118,1,254170120
1420192,91310,NIEZABYSZEWO,17.43333333,54.13333333,7,221,118,1,254170130
1420193,91311,UGOSZCZ,17.53333333,54.13333333,7,221,118,1,254179995
1420194,91319,KLUKOWA HUTA,17.9,54.25,7,221,118,1,254179994
1420195,91320,ULISZKOWICE,17.11666667,54.28333333,7,221,118,1,254170080
1420196,91323,KRUSZYNA,17.03333333,54.35,7,221,118,1,254179997
1420197,91328,BUKOWINA,17.85,54.41666667,7,221,118,1,254170070
1420198,91329,MALCZKOWO,17.36666667,54.43333333,7,221,118,1,254170050
1420199,91335,OBJAZDA,17.05,54.61666667,7,221,118,1,254170030
1420200,91340,SMOŁDZINO,17.21666667,54.66666667,7,221,118,1,254170020
1420201,91344,ŻELAZNO,17.86666667,54.73333333,7,221,118,1,254170010
1420202,91351,ŁUPAWSKO,17.6,54.28333333,7,221,118,1,254170090
1420203,91352,MIKOROWO,17.58333333,54.41666667,7,221,118,1,254170060
1420204,91353,BORUCINO,17.98333333,54.25,7,221,118,1,254170110
1420205,91354,KLUKI,17.37111111,54.68833333,7,221,118,1,254170170
1420206,91355,IZBICA,17.43861111,54.68333333,7,221,118,1,254170180
1420207,91356,SŁUPSK,17.03444444,54.46305556,7,221,118,1,254170190
1420208,91357,NIESIOŁOWICE-RZEPISKA,17.84888889,54.20444444,7,221,118,1,254170220
1420209,91358,SŁUCHOWO,17.96416667,54.77888889,7,221,118,1,254170250
1420210,91359,CZŁUCHY,17.195,54.66555556,7,221,118,1,254170270
1420211,91401,MIŁORADZ,18.91666667,54.01666667,7,221,118,1,254180180
1420212,91404,WOLNY DWÓR,18.43333333,54.08333333,7,221,118,1,254189997
1420213,91406,LUBAŃ,18.16666667,54.11666667,7,221,118,1,254180160
1420214,91409,TRĄBKI WIELKIE,18.53333333,54.16666667,7,221,118,1,254180150
1420215,91419,BĄKOWO,18.53333333,54.3,7,221,118,1,254180120
1420216,91421,KARTUZY,18.2,54.33333333,7,221,118,1,254189996
1420217,91423,MIRACHOWO,18.03333333,54.4,7,221,118,1,254189995
1420218,91425,RĘBISKA,18.33333333,54.45,7,221,118,1,254180080
1420219,91426,TĘPCZ,18.03333333,54.5,7,221,118,1,254180070
1420220,91429,WEJHEROWO,18.23333333,54.6,7,221,118,1,254180050
1420221,91433,JASTARNIA,18.66666667,54.7,7,221,118,1,254180030
1420222,91436,WIERZCHUCINO,18.0,54.78333333,7,221,118,1,254180020
1420223,91451,ŻELISTRZEWO,18.41666667,54.66666667,7,221,118,1,254180040
1420224,91452,LISEWO,18.83333333,54.1,7,221,118,1,254189991
1420225,91453,GORĘCZYNO,18.16666667,54.26666667,7,221,118,1,254180130
1420226,91455,GDYNIA DĄBROWA,18.44916667,54.46861111,7,221,118,1,254180230
1420227,91502,STRUŻYNA,19.95,54.0,7,221,118,1,254190180
1420228,91504,ZWIERZNO,19.35,54.03333333,7,221,118,1,254190170
1420229,91507,PASŁĘK,19.66666667,54.06666667,7,221,118,1,254190160
1420230,91509,DOBRY,19.95,54.11666667,7,221,118,1,254199996
1420231,91510,NOWY STAW,19.01666667,54.13333333,7,221,118,1,254190130
1420232,91511,SZOPY,19.33333333,54.13333333,7,221,118,1,254190140
1420233,91512,SŁOBITY,19.75,54.13333333,7,221,118,1,254190150
1420234,91516,MYŚLIWIEC,19.71666667,54.23333333,7,221,118,1,254199997
1420235,91520,TOLKMICKO,19.53333333,54.31666667,7,221,118,1,254190070
1420236,91521,STEGNA,19.11666667,54.33333333,7,221,118,1,254190060
1420237,91522,BRANIEWO,19.06916667,54.03361111,7,221,118,1,254190040
1420238,91523,KRYNICA MORSKA,19.45,54.38333333,7,221,118,1,254190030
1420239,91526,NOWA PASŁĘKA,19.06861111,54.035,7,221,118,1,254190020
1420240,91529,KĄTY RYBACKIE,19.21416667,54.33305556,7,221,118,1,254190210
1420241,91530,ROGITY,19.86138889,54.38916667,7,221,118,1,254190230
1420242,91550,KUROWO BRANIEWSKIE,19.75,54.23333333,7,221,118,1,254190090
1420243,91551,NOWE SADŁUKI,19.71388889,54.26166667,7,221,118,1,254190240
1420244,91601,WICHROWO,20.41666667,54.03333333,7,221,118,1,254200110
1420245,91602,FRANKNOWO,20.75,54.03333333,7,221,118,1,254209999
1420246,91603,LUBOMINO,20.25,54.06666667,7,221,118,1,254200090
1420247,91606,KASZUNY,20.33333333,54.15,7,221,118,1,254200070
1420248,91608,GALINY,20.83333333,54.16666667,7,221,118,1,254200060
1420249,91609,LECHOWO,20.26666667,54.2,7,221,118,1,254209998
1420250,91610,DŁUGOBÓR,19.99138889,54.22194444,7,221,118,1,254190110
1420251,91611,PIENIĘŻNO,20.13333333,54.23333333,7,221,118,1,254209997
1420252,91613,BARTOSZYCE,20.81666667,54.25,7,221,118,1,254200040
1420253,91614,GÓROWO IŁAWECKIE,20.5,54.3,7,221,118,1,254200030
1420254,91616,JUDYTY,20.9,54.31666667,7,221,118,1,254200020
1420255,91617,LELKOWO,20.23333333,54.33333333,7,221,118,1,254200010
1420256,91619,SZCZURKOWO,20.90277778,54.35527778,7,221,118,1,254200120
1420257,91620,DOMARADY,20.92083333,54.31138889,7,221,118,1,254200130
1420258,91651,BORNITY,20.05083333,54.18416667,7,221,118,1,254200050
1420259,91701,SIEDLISKA,21.91666667,54.0,7,221,118,1,253210010
1420260,91703,SĄTOPY-SAMULEWO,21.05,54.06666667,7,221,118,1,254219998
1420261,91704,PRZERWANKI,21.91666667,54.13333333,7,221,118,1,254210050
1420262,91706,PNIEWO,21.65,54.16666667,7,221,118,1,254210040
1420263,91707,GŁOWBITY,21.1,54.18333333,7,221,118,1,254210030
1420264,91708,BARCIANY,21.35,54.21666667,7,221,118,1,254210010
1420265,91709,WĘGORZEWO,21.76666667,54.21666667,7,221,118,1,254210020
1420266,91751,WILKOWO,21.31666667,54.01666667,7,221,118,1,254210060
1420267,91801,GIŻE,22.4,54.0,7,221,118,1,253220010
1420268,91804,BAKAŁARZEWO,22.65,54.1,7,221,118,1,254220080
1420269,91807,KOWALE OLECKIE,22.41666667,54.16666667,7,221,118,1,254220070
1420270,91813,BANIE MAZURSKIE,22.03333333,54.25,7,221,118,1,254220060
1420271,91816,DUBENINKI,22.58333333,54.28333333,7,221,118,1,254220040
1420272,91819,ŻABIN,22.05,54.33333333,7,221,118,1,254220020
1420273,91820,ŻYTKIEJMY,22.7,54.35,7,221,118,1,254220010
1420274,91850,SIDORY,22.91666667,54.26666667,7,221,118,1,254220050
1420275,91851,PRZEŁOMKA,22.78333333,54.26666667,7,221,118,1,254229999
1420276,91902,STARY FOLWARK,23.06666667,54.06666667,7,221,118,1,254230030
1420277,91903,POMORZE,23.36666667,54.06666667,7,221,118,1,254239998
1420278,91904,SEJNY,23.35,54.1,7,221,118,1,254230020
1420279,91907,SMOLANY,23.2,54.18333333,7,221,118,1,254239999
1420280,91908,ALEKSANDRÓWKA,23.11666667,54.26666667,7,221,118,1,254230010
1420281,92003,MIELĘCIN,14.9,53.06666667,7,221,118,1,253140150
1420282,92006,WIDUCHOWA,14.4,53.11666667,7,221,118,1,253140140
1420283,92010,LINIE,14.75,53.18333333,7,221,118,1,253140130
1420284,92011,TURZE,14.88333333,53.2,7,221,118,1,253140120
1420285,92014,GRYFINO,14.48333333,53.25,7,221,118,1,253140110
1420286,92015,BINOWO,14.65,53.3,7,221,118,1,253140080
1420287,92016,ŻELEWO,14.86666667,53.3,7,221,118,1,253140090
1420288,92021,GOLENIÓW,14.81666667,53.56666667,7,221,118,1,253140070
1420289,92022,STEPNICA,14.63333333,53.65,7,221,118,1,253140050
1420290,92024,PODGRODZIE,14.33222222,53.73277778,7,221,118,1,253140030
1420291,92026,KARTLEWO,14.8,53.8,7,221,118,1,253140020
1420292,92028,WOLIN,14.6,53.83333333,7,221,118,1,253140010
1420293,92032,WARNOWO,14.56666667,53.95,7,221,118,1,253149997
1420294,92051,TRZEBIEŻ,14.53333333,53.66666667,7,221,118,1,253140040
1420295,92052,SZCZECIN-PODJUCHY,14.59305556,53.36944444,7,221,118,1,253140170
1420296,92053,SIERAKOWO,14.50333333,53.50444444,7,221,118,1,253140180
1420297,92054,SZCZECIN-POGODNO,14.53694444,53.45722222,7,221,118,1,253140210
1420298,92055,DĄBROWICA,14.97388889,53.46388889,7,221,118,1,253140240
1420299,92104,KAMIENNA,15.93333333,53.03333333,7,221,118,1,253150230
1420300,92106,KRZĘCIN,15.5,53.08333333,7,221,118,1,253150220
1420301,92107,PŁOTNO,15.3,53.08333333,7,221,118,1,253150210
1420302,92108,CHOSZCZNO,15.41666667,53.16666667,7,221,118,1,253150180
1420303,92113,SUCHAŃ,15.31666667,53.28333333,7,221,118,1,253150160
1420304,92114,STARGARD SZCZECIŃSKI,15.05,53.33333333,7,221,118,1,253159995
1420305,92115,SULIBOREK,15.55,53.3,7,221,118,1,253159994
1420306,92116,POŹRZADŁO WIELKIE,15.91666667,53.38333333,7,221,118,1,253150150
1420307,92119,LISOWO,15.3,53.43333333,7,221,118,1,253150130
1420308,92120,IŃSKO,15.55,53.43333333,7,221,118,1,253150140
1420309,92121,MASZEWO,15.06666667,53.5,7,221,118,1,253159996
1420310,92123,WIEWIECKO,15.65,53.53333333,7,221,118,1,253150090
1420311,92124,DRAWSKO POMORSKIE,15.81666667,53.53333333,7,221,118,1,253150110
1420312,92126,DOBRA,15.3,53.58333333,7,221,118,1,253159997
1420313,92128,OSTROWICE,15.96666667,53.63333333,7,221,118,1,253159998
1420314,92129,ŁABĘDZIE,15.81666667,53.65,7,221,118,1,253150070
1420315,92130,NOWOGARD,15.11666667,53.66666667,7,221,118,1,253150060
1420316,92132,PORADZ,15.6,53.7,7,221,118,1,253150050
1420317,92136,PŁOTY,15.26666667,53.8,7,221,118,1,253150040
1420318,92140,SŁAWOBORZE,15.70194444,53.90361111,7,221,118,1,253150030
1420319,92142,WITNO,15.06666667,53.95,7,221,118,1,253150020
1420320,92143,STARNIN,15.46666667,53.96666667,7,221,118,1,253150010
1420321,92152,DRAWNO,15.76666667,53.21666667,7,221,118,1,253150170
1420322,92154,DARŻ,15.00055556,53.03583333,7,221,118,1,253150120
1420323,92155,BRZEŹNIAK,15.66666667,53.53333333,7,221,118,1,253150240
1420324,92157,SADŁOWO,15.27361111,53.27888889,7,221,118,1,253150380
1420325,92201,TRZCIANKA,16.46666667,53.03333333,7,221,118,1,253160180
1420326,92203,CZŁOPA,16.11666667,53.08333333,7,221,118,1,253160170
1420327,92204,MIELĘCIN,16.26666667,53.13333333,7,221,118,1,253169992
1420328,92206,GOSTOMIA,16.43333333,53.18333333,7,221,118,1,253160160
1420329,92207,TUCZNO,16.14805556,53.195,7,221,118,1,253160150
1420330,92209,WAŁCZ,16.46666667,53.28333333,7,221,118,1,253169993
1420331,92210,MIROSŁAWIEC,16.08333333,53.35,7,221,118,1,253160130
1420332,92211,KARSIBÓR,16.4,53.36666667,7,221,118,1,253160120
1420333,92214,JASTROWIE,16.81666667,53.43333333,7,221,118,1,253160110
1420334,92216,SYPNIEWO,16.61666667,53.46666667,7,221,118,1,253169994
1420335,92219,OKONEK,16.85,53.53333333,7,221,118,1,253160080
1420336,92220,CZAPLINEK,16.23333333,53.56666667,7,221,118,1,253169995
1420337,92222,SILNOWO,16.5,53.63333333,7,221,118,1,253160070
1420338,92223,KLUCZEWO,16.18333333,53.65,7,221,118,1,253160060
1420339,92224,CZARNE,16.93333333,53.68333333,7,221,118,1,253169996
1420340,92226,BARWICE,16.35,53.75,7,221,118,1,253160050
1420341,92228,POWOJEWO,16.91666667,53.78333333,7,221,118,1,253169998
1420342,92230,GRZMIĄCA,16.43333333,53.83333333,7,221,118,1,253160040
1420343,92231,WIELANOWO,16.31666667,53.86666667,7,221,118,1,253160030
1420344,92234,SĘPOLNO WIELKIE,16.78333333,53.95,7,221,118,1,253160010
1420345,92235,SŁOSINKO,16.98333333,53.95,7,221,118,1,253169999
1420346,92253,OSÓWKO,16.06666667,53.9,7,221,118,1,253160020
1420347,92256,CHODZIEŻ,16.91666667,53.0,7,221,118,1,253169991
1420348,92257,PIŁAWA,16.03555556,53.05194444,7,221,118,1,253160210
1420349,92258,TUCZNO TRZECIE,16.16472222,53.21305556,7,221,118,1,253160220
1420350,92259,KARSIBÓR II,16.39805556,53.35166667,7,221,118,1,253160230
1420351,92260,WICEWO,16.12361111,53.8875,7,221,118,1,253160260
1420352,92301,SZAMOCIN,17.11666667,53.03333333,7,221,118,1,253170230
1420353,92304,BIAŁOŚLIWIE,17.08333333,53.08333333,7,221,118,1,253179993
1420354,92305,SAMOKLĘSKI,17.7,53.08333333,7,221,118,1,253179992
1420355,92308,NIEŻYCHOWO,17.15,53.15,7,221,118,1,253179994
1420356,92309,WYRZYSK,17.26666667,53.15,7,221,118,1,253170220
1420357,92312,WYSOKA,17.08333333,53.18333333,7,221,118,1,253170190
1420358,92313,WITOSŁAW,17.48333333,53.25,7,221,118,1,253179995
1420359,92315,WIELE,17.55,53.28333333,7,221,118,1,253170180
1420360,92316,KRAJENKA,17.0,53.3,7,221,118,1,253160140
1420361,92319,KORONOWO,17.93333333,53.31666667,7,221,118,1,253170170
1420362,92322,SYPNIEWO,17.33333333,53.36666667,7,221,118,1,253170160
1420363,92323,MĄKOWARSKO,17.81666667,53.4,7,221,118,1,253179996
1420364,92326,KLONOWO,17.96666667,53.45,7,221,118,1,253179991
1420365,92328,LUTÓWKO,17.45,53.46666667,7,221,118,1,253170150
1420366,92329,KAMIENICA,17.81666667,53.48333333,7,221,118,1,253170140
1420367,92334,KAMIEŃ KRAJEŃSKI,17.53333333,53.53333333,7,221,118,1,253170120
1420368,92335,PŁAZOWO,17.95,53.53333333,7,221,118,1,253170130
1420369,92336,ROZWORY,17.1,53.55,7,221,118,1,253170110
1420370,92338,TUCHÓŁKA,17.75,53.56666667,7,221,118,1,253170090
1420371,92343,CZŁUCHÓW,17.38333333,53.66666667,7,221,118,1,253170080
1420372,92345,ZAPĘDOWO,17.85,53.7,7,221,118,1,253170060
1420373,92347,GWIEŹDZIN,17.2,53.73333333,7,221,118,1,253170050
1420374,92351,CIECHOLEWY,17.41666667,53.81666667,7,221,118,1,253179990
1420375,92354,KOSOBUDY,17.76666667,53.88333333,7,221,118,1,253170040
1420376,92355,RÓŻKI-DĘBIE,17.15,53.9,7,221,118,1,253170030
1420377,92358,MILACHOWO,17.6,53.93333333,7,221,118,1,253179999
1420378,92359,JEZIORNA,17.91666667,53.95,7,221,118,1,253170020
1420379,92360,BOROWY MŁYN,17.31666667,53.96666667,7,221,118,1,253170010
1420380,92361,KOPERNICA,17.46666667,53.78333333,7,221,118,1,253179998
1420381,92363,WYCZECHY,17.03333333,53.68333333,7,221,118,1,253170070
1420382,92365,SMUKAŁA,17.96583333,53.19166667,7,221,118,1,253170240
1420383,92366,ŻALNO,17.75,53.6,7,221,118,1,253170250
1420384,92367,BYDGOSZCZ-SZWEDEROWO,17.995,53.09638889,7,221,118,1,253170260
1420385,92368,MOTYL,17.825,53.42972222,7,221,118,1,253170280
1420386,92369,MĄKOWARSKO,17.81444444,53.41194444,7,221,118,1,253170290
1420387,92371,NOWA RUDNA,17.03722222,53.19166667,7,221,118,1,253170380
1420388,92401,CHROŚNA,18.21666667,52.98333333,7,221,118,1,252180010
1420389,92408,KOWALEWO,18.91666667,53.16666667,7,221,118,1,253180230
1420390,92409,OSIELSKO,18.06666667,53.18333333,7,221,118,1,253180210
1420391,92411,UNISŁAW,18.41666667,53.2,7,221,118,1,253180190
1420392,92413,FALĘCIN,18.53333333,53.23333333,7,221,118,1,253180180
1420393,92416,WĄBRZEŹNO,18.95,53.28333333,7,221,118,1,253189993
1420394,92418,NOWY JASINIEC,18.03333333,53.35,7,221,118,1,253180170
1420395,92420,ŚWIECIE,18.45,53.4,7,221,118,1,253189994
1420396,92421,RADZYŃ-FIJEWO,18.93333333,53.4,7,221,118,1,253180160
1420397,92423,KALISKA,18.41666667,53.5,7,221,118,1,253180140
1420398,92425,SIEROSŁAW,18.3,53.55,7,221,118,1,253189996
1420399,92426,RULEWO,18.61666667,53.55,7,221,118,1,253180130
1420400,92427,OSIE,18.35,53.6,7,221,118,1,253180120
1420401,92429,GARDEJA,18.95,53.61666667,7,221,118,1,253180110
1420402,92433,FRĄCA,18.63333333,53.71666667,7,221,118,1,253180080
1420403,92435,KORZENIEWO,18.08388889,53.06805556,7,221,118,1,253180070
1420404,92437,OCYPEL,18.33333333,53.81666667,7,221,118,1,253189991
1420405,92438,CZARNA WODA,18.1,53.83333333,7,221,118,1,253180060
1420406,92440,GNIEW,18.81666667,53.83333333,7,221,118,1,253189997
1420407,92441,LEŚNA HUTA,18.1,53.88333333,7,221,118,1,253189998
1420408,92444,STAROGARD GDAŃSKI,18.53333333,53.95,7,221,118,1,253180030
1420409,92447,BOŻEPOLE SZLACHECKIE,18.23333333,53.98333333,7,221,118,1,253180010
1420410,92450,UŚNICE,18.91666667,53.95,7,221,118,1,253189999
1420411,92451,BRODY POMORSKIE,18.76666667,53.86666667,7,221,118,1,253180050
1420412,92453,TLEŃ,18.26027778,53.61083333,7,221,118,1,253180250
1420413,92502,SKRWILNO,19.63333333,53.01666667,7,221,118,1,253190280
1420414,92503,OSTROWITE,19.28333333,53.06666667,7,221,118,1,253190260
1420415,92504,ŻUROMIN,19.91666667,53.06666667,7,221,118,1,253190270
1420416,92506,TOMKOWO,19.21666667,53.15,7,221,118,1,253190250
1420417,92508,ROKITNICA,19.53333333,53.16666667,7,221,118,1,253190240
1420418,92512,BRODNICA N/DRWĘCĄ,19.4,53.25,7,221,118,1,253190210
1420419,92514,BRZOZIE,19.61666667,53.33333333,7,221,118,1,253190190
1420420,92515,ZBICZNO,19.36666667,53.35,7,221,118,1,253190180
1420421,92517,KOSTKOWO,19.91666667,53.36666667,7,221,118,1,253190170
1420422,92518,JABŁONOWO,19.16666667,53.4,7,221,118,1,253199996
1420423,92519,OSTROWITE,19.28333333,53.41666667,7,221,118,1,253190160
1420424,92520,NOWE MIASTO,19.6,53.43333333,7,221,118,1,253190150
1420425,92522,BISKUPIEC,19.4,53.48333333,7,221,118,1,253190130
1420426,92523,LUBAWA,19.75,53.5,7,221,118,1,253190120
1420427,92524,ŁASIN,19.1,53.51666667,7,221,118,1,253190110
1420428,92526,PIETRZWAŁD,19.91666667,53.58333333,7,221,118,1,253190080
1420429,92528,IŁAWA,19.55,53.6,7,221,118,1,253199997
1420430,92530,RUDZIENICE,19.66666667,53.63333333,7,221,118,1,253199998
1420431,92536,JERZWAŁD,19.53333333,53.78333333,7,221,118,1,253190060
1420432,92537,JAŚKOWO,19.73333333,53.81666667,7,221,118,1,253190050
1420433,92538,STRASZEWO,19.03333333,53.83333333,7,221,118,1,253190040
1420434,92540,GIRGAJNY,19.66666667,53.86666667,7,221,118,1,253199999
1420435,92543,DZIERZGOŃ,19.35,53.91666667,7,221,118,1,253190020
1420436,92546,BUCZYNIEC,19.61666667,53.98333333,7,221,118,1,253190010
1420437,92552,WIERZBICA,19.98333333,53.48333333,7,221,118,1,253190140
1420438,92553,MOKRY LAS,19.11666667,53.16666667,7,221,118,1,253190230
1420439,92554,DZIARNY,19.61666667,53.56666667,7,221,118,1,253190090
1420440,92555,BĄGART,19.36666667,53.96666667,7,221,118,1,253190290
1420441,92556,KULIGI,19.705,53.43666667,7,221,118,1,253190310
1420442,92557,BYSZWAŁD,19.74222222,53.53277778,7,221,118,1,253190320
1420443,92558,BRUDNICE,19.86833333,53.07027778,7,221,118,1,253190330
1420444,92559,BUCZYNIEC,19.58472222,53.96777778,7,221,118,1,253190340
1420445,92560,BRZUZE,19.26805556,53.0575,7,221,118,1,253190350
1420446,92601,DOZINY,20.25,53.01666667,7,221,118,1,253209990
1420447,92603,GRUDUSK,20.63333333,53.06666667,7,221,118,1,253200220
1420448,92607,KRZYNOWŁOGA MAŁA,20.8,53.15,7,221,118,1,253200210
1420449,92609,DZIAŁDOWO,20.18333333,53.23333333,7,221,118,1,253200190
1420450,92611,CHORZELE,20.9,53.25,7,221,118,1,253200180
1420451,92613,SZCZEPKOWO BOROWE,20.58333333,53.3,7,221,118,1,253200170
1420452,92615,RÓG,20.76666667,53.33333333,7,221,118,1,253200160
1420453,92616,SŁAWKOWO,20.16666667,53.36666667,7,221,118,1,253200150
1420454,92618,WIELBARK,20.95,53.4,7,221,118,1,253200140
1420455,92619,WAŁY,20.63333333,53.43333333,7,221,118,1,253200130
1420456,92620,STARE MIASTO,20.0,53.46666667,7,221,118,1,253209992
1420457,92622,WAPLEWO,20.31666667,53.5,7,221,118,1,253209994
1420458,92623,BOLEJNY,20.45,53.51666667,7,221,118,1,253200110
1420459,92624,SZUĆ,20.73333333,53.51666667,7,221,118,1,253209989
1420460,92626,JEMIOŁOWO,20.29944444,53.56166667,7,221,118,1,253200080
1420461,92628,MAŁSZEWO,20.71666667,53.58333333,7,221,118,1,253200090
1420462,92631,NOWY RAMUK,20.58333333,53.65,7,221,118,1,253200070
1420463,92632,STAWIGUDA,20.41666667,53.66666667,7,221,118,1,253209988
1420464,92634,PAJTUNY,20.7,53.71666667,7,221,118,1,253200050
1420465,92635,GIETRZWAŁD,20.25,53.75,7,221,118,1,253200040
1420466,92637,RUMY,20.93333333,53.76666667,7,221,118,1,253209996
1420467,92641,SĘTAL,20.48333333,53.91666667,7,221,118,1,253200020
1420468,92645,KSIĄŻNIK,20.06666667,53.96666667,7,221,118,1,253209998
1420469,92646,STUDNICA,20.65,53.98333333,7,221,118,1,253209999
1420470,92647,KIKITY,20.86666667,53.98333333,7,221,118,1,253200010
1420471,92650,OLSZEWKI,20.98333333,53.68333333,7,221,118,1,253200060
1420472,92651,FRĄKNOWO,20.33333333,53.43333333,7,221,118,1,253200120
1420473,92652,BISKUPIEC,20.96666667,53.85,7,221,118,1,253200030
1420474,92654,LUTRY,20.88527778,53.99805556,7,221,118,1,253200230
1420475,92655,KIKITY II,20.87722222,53.98277778,7,221,118,1,253200240
1420476,92656,RUKŁAWKI,20.91166667,53.86611111,7,221,118,1,253200250
1420477,92657,PREJŁOWO,20.72583333,53.74444444,7,221,118,1,253200260
1420478,92658,SĄTRZASKA,20.97555556,53.03944444,7,221,118,1,253200270
1420479,92703,KURPIE,21.76666667,53.05,7,221,118,1,253210270
1420480,92705,JEDNOROŻEC,21.05,53.15,7,221,118,1,253210250
1420481,92706,CIERPIĘTA,21.15,53.18333333,7,221,118,1,253210240
1420482,92708,KADZIDŁO,21.46666667,53.23333333,7,221,118,1,253210230
1420483,92709,NOWOGRÓD,21.86666667,53.23333333,7,221,118,1,253219995
1420484,92710,DOBRYLAS,21.82722222,53.29638889,7,221,118,1,253210220
1420485,92712,WACH,21.38333333,53.3,7,221,118,1,253219997
1420486,92714,LESINY WIELKIE,21.13333333,53.38333333,7,221,118,1,253210190
1420487,92715,PTAKI,21.8,53.4,7,221,118,1,253210180
1420488,92716,KOLNO,21.93333333,53.4,7,221,118,1,253219999
1420489,92719,ROZOGI,21.36666667,53.48333333,7,221,118,1,253210170
1420490,92720,NIEDŹWIEDZIE,21.15,53.51666667,7,221,118,1,253210150
1420491,92721,TUROŚL,21.6,53.51666667,7,221,118,1,253210160
1420492,92722,TUROWO,21.9,53.53333333,7,221,118,1,253210140
1420493,92724,RACIBÓR,21.26666667,53.6,7,221,118,1,253210120
1420494,92725,SZEROKI BÓR,21.65,53.61666667,7,221,118,1,253210090
1420495,92727,PISZ,21.8,53.63333333,7,221,118,1,253210110
1420496,92730,BABIĘTA,21.26666667,53.66666667,7,221,118,1,253210080
1420497,92734,ORZYSZ,21.96666667,53.8,7,221,118,1,253210070
1420498,92735,MARADKI,21.15,53.81666667,7,221,118,1,253210060
1420499,92736,MŁYNOWO,21.33333333,53.88333333,7,221,118,1,253210040
1420500,92737,SZYMONKA,21.66666667,53.88333333,7,221,118,1,253210050
1420501,92738,RYN,21.53333333,53.93333333,7,221,118,1,253210030
1420502,92739,ŁĘŻANY,21.15,53.96666667,7,221,118,1,253210020
1420503,92740,OSTROŁĘKA,21.56361111,53.08361111,7,221,118,1,253210310
1420504,92750,GRĄDY PODMIEJSKIE,21.95027778,53.82166667,7,221,118,1,253210320
1420505,92751,ZARUZIE,21.8,53.13333333,7,221,118,1,253210260
1420506,92752,PTAKI,21.8,53.4,7,221,118,1,253210290
1420507,92753,DOBRYLAS,21.86666667,53.28333333,7,221,118,1,253210280
1420508,92754,DZBENIN,21.55222222,53.05416667,7,221,118,1,253210330
1420509,92755,MRĄGOWO,21.31027778,53.88694444,7,221,118,1,253210340
1420510,92756,TYSZKI-WĄDOŁOWO,21.98416667,53.44777778,7,221,118,1,253210350
1420511,92757,MIKOSZE,21.92166667,53.80583333,7,221,118,1,253210360
1420512,92803,BACIUTY,22.98333333,53.05,7,221,118,1,253220260
1420513,92804,MĘŻENIN,22.46666667,53.08333333,7,221,118,1,253220240
1420514,92806,PODGÓRZE,22.13333333,53.11666667,7,221,118,1,253220230
1420515,92807,ZAWADY,22.67333333,53.15694444,7,221,118,1,253220220
1420516,92809,WIZNA,22.4,53.2,7,221,118,1,253220190
1420517,92810,TYKOCIN,22.78333333,53.2,7,221,118,1,253220210
1420518,92813,BURZYN,22.45,53.28333333,7,221,118,1,253220160
1420519,92814,KRYPNO KOŚCIELNE,22.88333333,53.28333333,7,221,118,1,253220170
1420520,92817,STAWISKI,22.16666667,53.4,7,221,118,1,253220140
1420521,92818,MOŃKI,22.8,53.4,7,221,118,1,253220150
1420522,92819,RADZIŁÓW,22.4,53.41666667,7,221,118,1,253220130
1420523,92820,LACHOWO,22.01666667,53.46666667,7,221,118,1,253229996
1420524,92822,OSOWIEC,22.65,53.48333333,7,221,118,1,253220120
1420525,92826,DĘBOWO,22.93333333,53.61666667,7,221,118,1,253220080
1420526,92827,GRAJEWO,22.45,53.65,7,221,118,1,253229999
1420527,92828,DRYGAŁY,22.11666667,53.7,7,221,118,1,253220050
1420528,92829,PROSTKI,22.43333333,53.7,7,221,118,1,253220060
1420529,92832,BIAŁOBRZEGI,22.96666667,53.8,7,221,118,1,253220040
1420530,92834,EŁK,22.35,53.83333333,7,221,118,1,253220030
1420531,92840,RANTY,22.05,53.93333333,7,221,118,1,253229995
1420532,92843,BARSZCZOWA GÓRA,22.96666667,53.96666667,7,221,118,1,253229994
1420533,92844,RACZKI,22.78333333,53.98333333,7,221,118,1,253220020
1420534,92851,ELŻBIECIN,22.13333333,53.2,7,221,118,1,253229998
1420535,92852,MOŃKI,22.79583333,53.40027778,7,221,118,1,253220310
1420536,92853,SOSNOWO,22.92555556,53.70027778,7,221,118,1,253220340
1420537,92854,BACZE SUCHE,22.11666667,53.06833333,7,221,118,1,253220350
1420538,92903,ZABŁUDÓW,23.33333333,53.01666667,7,221,118,1,253230140
1420539,92908,GRÓDEK,23.66666667,53.1,7,221,118,1,253230130
1420540,92911,FASTY,23.01666667,53.18333333,7,221,118,1,253230110
1420541,92912,NOWOSIÓŁKI,23.51666667,53.18333333,7,221,118,1,253230150
1420542,92913,SUPRAŚL,23.33333333,53.21666667,7,221,118,1,253230090
1420543,92916,SZUDZIAŁOWO,23.65,53.3,7,221,118,1,253230070
1420544,92918,POLANKI,23.35,53.35,7,221,118,1,253239997
1420545,92920,POPIOŁÓWKA,23.11666667,53.4,7,221,118,1,253239998
1420546,92921,SOKÓŁKA,23.5,53.4,7,221,118,1,253230050
1420547,92922,KAMIONKA,23.03333333,53.43333333,7,221,118,1,253230040
1420548,92923,JANÓW,23.23333333,53.46666667,7,221,118,1,253230030
1420549,92926,HOŁODOLINA,23.23333333,53.53333333,7,221,118,1,253239996
1420550,92932,KRASNE,23.35,53.78333333,7,221,118,1,253239995
1420551,92933,SUCHA RZECZKA,23.2,53.88333333,7,221,118,1,253239999
1420552,92935,DRAHLE,23.555,53.38555556,7,221,118,1,253230180
1420553,92950,JASTRZĘBNA PIERWSZA,23.21666667,53.73333333,7,221,118,1,253230010
1420554,92951,JAŁÓWKA,23.35,53.36666667,7,221,118,1,253230060
1420555,92952,NOWOSIÓŁKI,23.53333333,53.16666667,7,221,118,1,253230170
1420556,92953,SOCHONIE,23.16666667,53.21666667,7,221,118,1,253230080
1420557,92954,MIKASZÓWKA,23.395,53.8875,7,221,118,1,253230190
1420558,92955,NOWINKA,23.65333333,53.29944444,7,221,118,1,253230210
1420559,93001,KOSARZYN,14.76666667,52.06666667,7,221,118,1,252140140
1420560,93002,MASZEWO,14.08444444,52.00111111,7,221,118,1,252140150
1420561,93004,CYBINKA,14.81666667,52.2,7,221,118,1,252140130
1420562,93006,BOCZÓW,14.95,52.31666667,7,221,118,1,252140120
1420563,93008,OŚNO LUBUSKIE,14.86666667,52.45,7,221,118,1,252140110
1420564,93010,KOSTRZYN NAD ODRĄ,14.66666667,52.58333333,7,221,118,1,252140090
1420565,93013,WITNICA,14.9,52.66666667,7,221,118,1,252140080
1420566,93014,BOLESZKOWICE,14.56666667,52.71666667,7,221,118,1,252140070
1420567,93015,GOZDOWICE,14.31666667,52.76666667,7,221,118,1,252140060
1420568,93016,MIESZKOWICE,14.5,52.8,7,221,118,1,252149996
1420569,93019,OSINÓW DOLNY,14.15,52.85,7,221,118,1,252140030
1420570,93020,WARNICE,14.68333333,52.85,7,221,118,1,252140040
1420571,93022,MORYŃ,14.4,52.86666667,7,221,118,1,252149997
1420572,93023,MYŚLIBÓRZ,14.86666667,52.91666667,7,221,118,1,252140020
1420573,93024,BIELINEK,14.15,52.95,7,221,118,1,252149998
1420574,93026,CHOJNA,14.43333333,52.96666667,7,221,118,1,252140010
1420575,93050,WIERZCHLAS,14.5,52.83333333,7,221,118,1,252140050
1420576,93053,BIAŁCZYK,14.89916667,52.65527778,7,221,118,1,252140180
1420577,93054,MACZKÓW,14.74416667,52.27527778,7,221,118,1,252140190
1420578,93101,LASKI,15.31666667,52.03333333,7,221,118,1,252150240
1420579,93103,KROSNO ODRZAŃSKIE,15.11666667,52.05,7,221,118,1,252159998
1420580,93104,KARGOWA,15.86666667,52.08333333,7,221,118,1,252150230
1420581,93105,SULECHÓW,15.61666667,52.1,7,221,118,1,252150220
1420582,93110,GRYŻYNA,15.28333333,52.18333333,7,221,118,1,252150210
1420583,93112,ZBĄSZYŃ,15.93333333,52.25,7,221,118,1,252150190
1420584,93115,ŻELECHÓW,15.35,52.31666667,7,221,118,1,252150170
1420585,93117,LUTOL SUCHY,15.71666667,52.33333333,7,221,118,1,252150160
1420586,93123,MIĘDZYRZECZ,15.61666667,52.45,7,221,118,1,252150150
1420587,93128,LUBIKOWO,15.7,52.55,7,221,118,1,252150130
1420588,93130,KRZESZYCE,15.01666667,52.58333333,7,221,118,1,252150090
1420589,93131,SKWIERZYNA,15.48638889,52.58916667,7,221,118,1,252150110
1420590,93136,GOŚCIM,15.7,52.76666667,7,221,118,1,252150080
1420591,93138,DREZDENKO,15.86666667,52.85,7,221,118,1,252150070
1420592,93139,STRZELCE KRAJEŃSKIE,15.53333333,52.86666667,7,221,118,1,252150060
1420593,93140,ŁUBIANKA,15.2,52.88333333,7,221,118,1,252150040
1420594,93141,GIŻYN,15.00027778,52.08527778,7,221,118,1,252150030
1420595,93142,DOBIEGNIEW,15.76666667,52.96666667,7,221,118,1,252150020
1420596,93143,TUCZNO,15.49416667,52.97472222,7,221,118,1,252150010
1420597,93150,BUDACHÓW,15.1,52.15,7,221,118,1,252159996
1420598,93151,LUBNIEWICE,15.26666667,52.51666667,7,221,118,1,252150140
1420599,93152,BABIMOST,15.79611111,52.14,7,221,118,1,252150270
1420600,93153,SKWIERZYNA,15.50722222,52.60277778,7,221,118,1,252150280
1420601,93154,ROKITNO,15.64055556,52.55027778,7,221,118,1,252150290
1420602,93155,NĄDNIA,15.88361111,52.24166667,7,221,118,1,252150310
1420603,93156,BRZOZA,15.48194444,52.86611111,7,221,118,1,252150320
1420604,93157,ŁUGI,15.69555556,52.94361111,7,221,118,1,252150340
1420605,93201,BŁOTNICA,16.29833333,51.99694444,7,221,118,1,251160010
1420606,93202,ŚWIĘTNO,16.05027778,52.00611111,7,221,118,1,252160260
1420607,93208,TUREW,16.82972222,52.05722222,7,221,118,1,252160250
1420608,93211,KOŚCIAN,16.63333333,52.1,7,221,118,1,252160240
1420609,93212,WOLSZTYN,16.11666667,52.11666667,7,221,118,1,252169995
1420610,93214,KONOJAD,16.55,52.15,7,221,118,1,252160210
1420611,93215,BRODNICA,16.08444444,52.0025,7,221,118,1,252160220
1420612,93219,JABŁONNA,16.2,52.2,7,221,118,1,252160190
1420613,93222,MOSINA,16.85,52.25,7,221,118,1,252160180
1420614,93223,STĘSZEW,16.7,52.28333333,7,221,118,1,252160170
1420615,93229,MICHORZEWO,16.35,52.36666667,7,221,118,1,252160150
1420616,93231,GRZEBIENISKO,16.53333333,52.43333333,7,221,118,1,252160140
1420617,93235,BRODY,16.31666667,52.45,7,221,118,1,252169997
1420618,93236,ZĘBOWO,16.08333333,52.46666667,7,221,118,1,252160130
1420619,93237,ZŁOTNIKI,16.83333333,52.48333333,7,221,118,1,252160120
1420620,93238,PNIEWY,16.25,52.5,7,221,118,1,252169998
1420621,93240,NOJEWO,16.31666667,52.6,7,221,118,1,252160090
1420622,93241,OBORNIKI WIELKOPOLSKIE,16.81666667,52.65,7,221,118,1,252160080
1420623,93242,TUCHOLA,16.15,52.66666667,7,221,118,1,252169999
1420624,93243,WRONKI,16.38333333,52.7,7,221,118,1,252160070
1420625,93247,MIAŁY,16.16666667,52.81666667,7,221,118,1,252160030
1420626,93248,MIŁKOWO,16.51666667,52.81666667,7,221,118,1,252160040
1420627,93249,RYCZYWÓŁ,16.83333333,52.81666667,7,221,118,1,252160050
1420628,93253,KUŹNICA CZARNKOWSKA,16.53333333,52.95,7,221,118,1,252160010
1420629,93254,PODANIN,16.96666667,52.95,7,221,118,1,252160020
1420630,93255,DZIERŻĄŻNO WIELKIE,16.2,52.98333333,7,221,118,1,252169994
1420631,93259,KOŚCIAN II,16.65277778,52.08722222,7,221,118,1,252160340
1420632,93260,PRZYJEZIERZE,14.37388889,52.87055556,7,221,118,1,252160360
1420633,93295,DRUŻYNA POZNAŃSKA,16.81777778,52.20777778,7,221,118,1,252160310
1420634,93296,OBORNIKI WIELKOPOLSKIE II,16.06861111,52.0525,7,221,118,1,252160320
1420635,93297,MICHORZEWO II,16.36666667,52.36666667,7,221,118,1,252160330
1420636,93301,BACHORZEW,17.56666667,52.0,7,221,118,1,252179996
1420637,93304,ŻERKÓW,17.56666667,52.06666667,7,221,118,1,252170290
1420638,93305,ŚREM,17.0375,52.08083333,7,221,118,1,252170270
1420639,93306,KLĘKA,17.41666667,52.08333333,7,221,118,1,252170280
1420640,93307,ŚREM,17.01666667,52.1,7,221,118,1,252179997
1420641,93308,ŁOMÓW,17.85,52.11666667,7,221,118,1,252179992
1420642,93309,ZANIEMYŚL,17.01666667,52.0025,7,221,118,1,252170250
1420643,93310,NOWA WIEŚ PODGÓRNA,17.6,52.15,7,221,118,1,252170260
1420644,93313,LĄD,17.9,52.2,7,221,118,1,252179994
1420645,93316,PIOTROWO,17.98333333,52.21666667,7,221,118,1,252170220
1420646,93319,NAGRADOWICE,17.15,52.31666667,7,221,118,1,252170170
1420647,93320,WRZEŚNIA,17.6,52.31666667,7,221,118,1,252170180
1420648,93324,KOSTRZYN,17.23333333,52.4,7,221,118,1,252170160
1420649,93325,POWIDZ,17.91666667,52.41666667,7,221,118,1,252170150
1420650,93326,GRUSZCZYN,17.06972222,52.43138889,7,221,118,1,252170130
1420651,93327,CZERNIEJEWO,17.5,52.43333333,7,221,118,1,252170140
1420652,93330,POBIEDZISKA,17.28333333,52.48333333,7,221,118,1,252170120
1420653,93336,TRZEMESZNO,17.81666667,52.56666667,7,221,118,1,252170090
1420654,93337,PRZEBĘDOWO,17.01666667,52.58333333,7,221,118,1,252170080
1420655,93343,SKOKI,17.15,52.66666667,7,221,118,1,252179991
1420656,93344,SZELEJEWO,17.75,52.73333333,7,221,118,1,252170070
1420657,93345,ROGOŹNO,17.0,52.75,7,221,118,1,252160060
1420658,93347,DĄBROWA,17.95,52.75,7,221,118,1,252179995
1420659,93348,JANOWIEC WIELKOPOLSKI,17.48333333,52.76666667,7,221,118,1,252170060
1420660,93353,SŁĘBOWO,17.6,52.85,7,221,118,1,252170030
1420661,93354,ŻNIN,17.75,52.83333333,7,221,118,1,252170040
1420662,93355,BARCIN,17.95,52.86666667,7,221,118,1,252179999
1420663,93357,GOŁAŃCZ,17.3,52.95,7,221,118,1,252170020
1420664,93362,ZALESIE,17.6,52.98333333,7,221,118,1,252170010
1420665,93365,WINNA GÓRA,17.45,52.2,7,221,118,1,252170230
1420666,93367,BOBROWNIKI,17.13333333,52.81666667,7,221,118,1,252170050
1420667,93368,LUBONIEC,17.20194444,52.1675,7,221,118,1,252170340
1420668,93369,SŁĘBOWO II,17.6,52.83333333,7,221,118,1,252170350
1420669,93370,GŁĘBOCKO,17.05972222,52.59444444,7,221,118,1,252170360
1420670,93371,TROJANOWO,17.01694444,52.59944444,7,221,118,1,252170370
1420671,93372,CZERNIEJEWO II,17.45888889,52.41361111,7,221,118,1,252170380
1420672,93401,TUREK,18.5,52.01666667,7,221,118,1,252180260
1420673,93402,GRODZIEC,18.05,52.03333333,7,221,118,1,252189993
1420674,93404,TULISZKÓW,18.3,52.08333333,7,221,118,1,252180240
1420675,93405,DĄBIE,18.81666667,52.08333333,7,221,118,1,252180250
1420676,93407,WŁADYSŁAWÓW,18.48333333,52.1,7,221,118,1,252180230
1420677,93411,DĘBOWICE,18.86666667,52.18333333,7,221,118,1,252189992
1420678,93413,KONIN,18.23333333,52.21666667,7,221,118,1,252180220
1420679,93415,KŁODAWA,18.8925,52.24916667,7,221,118,1,252180210
1420680,93416,KRAMSK,18.43333333,52.26666667,7,221,118,1,252189991
1420681,93417,DĘBY SZLACHECKIE,18.6,52.3,7,221,118,1,252180190
1420682,93420,BABIAK,18.66666667,52.35,7,221,118,1,252189994
1420683,93421,MODZEROWO,18.76666667,52.35,7,221,118,1,252189990
1420684,93423,JABŁONKA,18.11666667,52.36666667,7,221,118,1,252180180
1420685,93425,SOMPOLNO,18.51666667,52.38333333,7,221,118,1,252180170
1420686,93427,WANDOWO,18.3,52.43333333,7,221,118,1,252180150
1420687,93429,IZBICA KUJAWSKA,18.06833333,52.035,7,221,118,1,252180160
1420688,93437,GĘBICE,18.03333333,52.6,7,221,118,1,252180130
1420689,93438,STRZELNO,18.16666667,52.63333333,7,221,118,1,252180110
1420690,93440,DOBRE,18.56666667,52.68333333,7,221,118,1,252189996
1420691,93441,KOŁODZIEJEWO,18.03333333,52.71666667,7,221,118,1,252189997
1420692,93444,SOBIESIERNIE,18.45,52.75,7,221,118,1,252180070
1420693,93445,LUBANIE,18.91666667,52.75,7,221,118,1,252189989
1420694,93446,PAKOŚĆ,18.08333333,52.8,7,221,118,1,252180060
1420695,93448,JAKSICE,18.18333333,52.85,7,221,118,1,252180040
1420696,93449,WIĘCŁAWICE,18.31666667,52.85,7,221,118,1,252180050
1420697,93452,CZERNIKOWO,18.95,52.95,7,221,118,1,252180030
1420698,93453,NOWA WIEŚ WIELKA,18.1,52.96666667,7,221,118,1,252180020
1420699,93457,PILICH,18.31666667,52.5,7,221,118,1,252180140
1420700,93459,GŁĘBOKIE,18.45,52.65,7,221,118,1,252180090
1420701,93460,STARY BRZEŚĆ,18.91361111,52.61666667,7,221,118,1,252180120
1420702,93462,JAKSICE II,18.19972222,52.87083333,7,221,118,1,252180330
1420703,93463,NOWA WIEŚ WIELKA II,18.08333333,52.97916667,7,221,118,1,252180340
1420704,93464,JEZIORKI,18.14611111,52.61944444,7,221,118,1,252180350
1420705,93465,MIEROGONIEWICE,18.33611111,52.8725,7,221,118,1,252180360
1420706,93501,KRZEPOCINEK,19.1,52.0,7,221,118,1,252190170
1420707,93506,WALEWICE,19.68333333,52.1,7,221,118,1,252190160
1420708,93507,ŁOWICZ,19.95,52.11666667,7,221,118,1,252190150
1420709,93511,WAŁY,19.4,52.18333333,7,221,118,1,252190130
1420710,93514,ŻYCHLIN,19.63333333,52.25,7,221,118,1,252190120
1420711,93516,STRZELCE,19.4,52.31666667,7,221,118,1,252199998
1420712,93520,CHODECZ,19.03333333,52.4,7,221,118,1,252190110
1420713,93522,GOSTYNIN,19.46666667,52.41666667,7,221,118,1,252190090
1420714,93524,BARUCHOWO,19.23333333,52.5,7,221,118,1,252190080
1420715,93525,OLGANOWO,19.0,52.53333333,7,221,118,1,252199993
1420716,93526,DUNINÓW,19.48333333,52.58333333,7,221,118,1,252190070
1420717,93527,OPATOWIEC,19.96666667,52.61666667,7,221,118,1,252199999
1420718,93530,WŁOCŁAWEK,19.08333333,52.66666667,7,221,118,1,252199992
1420719,93535,MOCHOWO,19.56666667,52.76666667,7,221,118,1,252190050
1420720,93537,ŻABOWO,19.91666667,52.83333333,7,221,118,1,252190040
1420721,93539,SKĘPE (WYMYŚLIN),19.03361111,52.08388889,7,221,118,1,252190010
1420722,93540,SIERPC,19.68333333,52.86666667,7,221,118,1,252190020
1420723,93550,MIKOŁAJEWO,19.93333333,52.61666667,7,221,118,1,252190060
1420724,93551,OPIESIN,19.07388889,52.17666667,7,221,118,1,252190140
1420725,93552,ZAMBRZYCA,19.62805556,52.99,7,221,118,1,252190180
1420726,93553,ZDUNY,19.09555556,52.03,7,221,118,1,252190220
1420727,93603,MIEDNIEWICE,20.3,52.08333333,7,221,118,1,252209994
1420728,93618,SOCHACZEW,20.25,52.23333333,7,221,118,1,252200170
1420729,93619,ZIELONKI,20.81666667,52.25,7,221,118,1,252200160
1420730,93626,FAMUŁKI BROCHOWSKIE,20.35,52.31666667,7,221,118,1,252200140
1420731,93627,IŁÓW,20.03333333,52.33333333,7,221,118,1,252200130
1420732,93631,GRÓDKOWO,20.2,52.43333333,7,221,118,1,252200090
1420733,93632,ZAKROCZYM,20.60333333,52.43,7,221,118,1,252200110
1420734,93633,NOWY DWÓR MAZOWIECKI,20.71666667,52.43333333,7,221,118,1,252209998
1420735,93641,WINNICA,20.95,52.65,7,221,118,1,252200050
1420736,93643,RACIĄŻ,20.13333333,52.78333333,7,221,118,1,252200030
1420737,93644,GOŁOTCZYZNA,20.7,52.78333333,7,221,118,1,252200040
1420738,93651,STRZEGOWO,20.28333333,52.9,7,221,118,1,252200020
1420739,93652,KRASNE,20.96666667,52.91666667,7,221,118,1,252209993
1420740,93657,BRWINÓW,20.71666667,52.13333333,7,221,118,1,252200190
1420741,93659,PRZEDWOJEWO,20.65888889,52.92055556,7,221,118,1,252200010
1420742,93660,KAWĘCZYN,20.35,52.17166667,7,221,118,1,252200180
1420743,93661,BORKOWO,20.66666667,52.55,7,221,118,1,252200080
1420744,93662,PRUSZKÓW,20.76944444,52.1825,7,221,118,1,252200210
1420745,93663,WARSZAWA-CZAJKA,20.96138889,52.35083333,7,221,118,1,252200220
1420746,93664,CZARNÓW-TOWARZYSTWO,20.54805556,52.24472222,7,221,118,1,252200250
1420747,93665,LESZNO,20.58555556,52.25611111,7,221,118,1,252200260
1420748,93666,KRASZEWO,20.56722222,52.79083333,7,221,118,1,252200270
1420749,93667,KOLONIA KAWĘCZYN,20.35472222,52.18222222,7,221,118,1,252200280
1420750,93702,ORZESZYN,21.08333333,52.03333333,7,221,118,1,252210260
1420751,93703,WIELGOLAS,21.73333333,52.03333333,7,221,118,1,252210240
1420752,93706,CZŁEKÓWKA,21.45,52.05,7,221,118,1,252219991
1420753,93708,SIENNICA,21.61666667,52.08333333,7,221,118,1,252210220
1420754,93711,WARSZAWA KABATY,21.06666667,52.13333333,7,221,118,1,252219994
1420755,93722,DĘBE WIELKIE,21.43333333,52.2,7,221,118,1,252210190
1420756,93730,SULEJÓWEK,21.3,52.25,7,221,118,1,252219990
1420757,93732,WARSZAWA-KAWĘCZYN,21.13333333,52.26666667,7,221,118,1,252210150
1420758,93734,STANISŁAWÓW,21.55,52.28333333,7,221,118,1,252210140
1420759,93739,WOŁOMIN,21.23333333,52.35,7,221,118,1,252210120
1420760,93740,SOŁKI,21.71666667,52.35,7,221,118,1,252210130
1420761,93742,MIĄSE,21.45,52.4,7,221,118,1,252219996
1420762,93745,SEROCK,21.06666667,52.51666667,7,221,118,1,252219988
1420763,93747,LASKI,21.73333333,52.51666667,7,221,118,1,252210110
1420764,93751,WYSZKÓW,21.45,52.58333333,7,221,118,1,252210080
1420765,93752,ZATORY,21.18333333,52.6,7,221,118,1,252210070
1420766,93753,SADOWNE,21.85,52.63333333,7,221,118,1,252210060
1420767,93756,ŚLEPIOTY,21.58333333,52.68333333,7,221,118,1,252219998
1420768,93758,WIŚNIEWO,21.7,52.75,7,221,118,1,252219987
1420769,93759,OSTRÓW MAZOWIECKA,21.9,52.8,7,221,118,1,252219999
1420770,93762,WĄSEWO,21.66666667,52.86666667,7,221,118,1,252210030
1420771,93764,GUTY DUŻE,21.26666667,52.93333333,7,221,118,1,252210010
1420772,93768,SINOŁĘKA,21.91666667,52.21666667,7,221,118,1,252210180
1420773,93769,SEROCZYN,21.91666667,52.01666667,7,221,118,1,252210250
1420774,93770,NIEGÓW,21.38861111,52.51,7,221,118,1,252210090
1420775,93771,ŚWIDER,21.23722222,52.11583333,7,221,118,1,252210210
1420776,93772,CELESTYNÓW,21.38333333,52.05,7,221,118,1,252210230
1420777,93773,KOMOROWO,21.83333333,52.81666667,7,221,118,1,252210040
1420778,93774,WARSZAWA-CZERNIAKOWSKA,21.04694444,52.21583333,7,221,118,1,252210270
1420779,93775,PILAWA,21.08722222,52.03138889,7,221,118,1,252210280
1420780,93776,CZARNOWO,21.53472222,52.88277778,7,221,118,1,252210020
1420781,93801,DOMANICE,22.18333333,52.03333333,7,221,118,1,252220190
1420782,93803,WÓLKA KAMIENNA,22.51666667,52.06666667,7,221,118,1,252220180
1420783,93805,MAKARÓWKA,22.88333333,52.11666667,7,221,118,1,252220170
1420784,93807,OLSZANKA,22.66666667,52.15,7,221,118,1,252229995
1420785,93809,MORDY,22.51666667,52.21666667,7,221,118,1,252220160
1420786,93810,ŁOSICE,22.73333333,52.21666667,7,221,118,1,252229996
1420787,93813,KRYNICA,22.3,52.3,7,221,118,1,252229994
1420788,93815,LIWSKIE MOSTY,22.01666667,52.36666667,7,221,118,1,252229998
1420789,93816,ŻANECIN,22.25,52.38333333,7,221,118,1,252220130
1420790,93818,SIEMIATYCZE,22.86666667,52.43333333,7,221,118,1,252229999
1420791,93820,WRZOSKI,22.11666667,52.48333333,7,221,118,1,252220110
1420792,93823,ŁAZÓW,22.36666667,52.56666667,7,221,118,1,252220080
1420793,93826,GRODZISK,22.73333333,52.58333333,7,221,118,1,252220070
1420794,93829,CIECHANOWIEC,22.5,52.68333333,7,221,118,1,252220060
1420795,93832,BRAŃSK,22.81666667,52.75,7,221,118,1,252220050
1420796,93834,CZYŻEW,22.33333333,52.8,7,221,118,1,252220040
1420797,93838,SURAŻ,22.95,52.95,7,221,118,1,252220020
1420798,93839,WIERZBOWO,22.33333333,52.98333333,7,221,118,1,252220010
1420799,93852,TONKIELE,22.56666667,52.41666667,7,221,118,1,252220120
1420800,93853,ŻUROBICE,22.93333333,52.53333333,7,221,118,1,252220090
1420801,93854,JARNICE,22.01666667,52.36666667,7,221,118,1,252220140
1420802,93855,PLATERÓW,22.82833333,52.30527778,7,221,118,1,252220150
1420803,93902,MICHAŁKI,23.31666667,52.1,7,221,118,1,252239996
1420804,93904,WERCHLIŚ,23.28333333,52.18333333,7,221,118,1,252239997
1420805,93905,ZABUŻE,23.05,52.31666667,7,221,118,1,252230170
1420806,93906,NURZEC,23.08333333,52.46666667,7,221,118,1,252230160
1420807,93907,KLESZCZELE,23.35,52.56666667,7,221,118,1,252230150
1420808,93910,BOĆKI,23.03333333,52.65,7,221,118,1,252230140
1420809,93911,ORZESZKOWO,23.55,52.68333333,7,221,118,1,252230130
1420810,93913,HAJNÓWKA,23.58333333,52.73333333,7,221,118,1,252230110
1420811,93915,NOWOSADY,23.61666667,52.8,7,221,118,1,252239999
1420812,93916,KLEJNIKI,23.4,52.83333333,7,221,118,1,252230070
1420813,93917,NOWE MASIEWO,23.08444444,52.08333333,7,221,118,1,252230080
1420814,93918,NAREWKA,23.75,52.86666667,7,221,118,1,252230060
1420815,93919,STRABLA,23.1,52.9,7,221,118,1,252230050
1420816,93920,NAREW,23.51666667,52.91666667,7,221,118,1,252230040
1420817,93923,NOWOSADY,23.88333333,52.96666667,7,221,118,1,252230010
1420818,93950,TRZEŚCIANKA,23.43333333,52.95,7,221,118,1,252230020
1420819,93951,OLSZYN,23.4,52.11666667,7,221,118,1,252230180
1420820,93952,CHRABOŁY,23.19555556,52.86222222,7,221,118,1,252230090
1420821,93953,NAREWKA,23.73333333,52.86666667,7,221,118,1,252230240
1420822,93955,ZAMOSZE,23.9,52.8,7,221,118,1,252230250
1420823,94002,SOBOLICE,14.98333333,51.38333333,7,221,118,1,251140060
1420824,94003,ŁĘKNICA,14.75,51.53333333,7,221,118,1,251140040
1420825,94004,TRZEBIEL,14.81666667,51.63333333,7,221,118,1,251149997
1420826,94005,PIETRZYKÓW,14.98333333,51.68333333,7,221,118,1,251149998
1420827,94007,BROŻEK (ZASIEKI),14.68333333,51.71666667,7,221,118,1,251140030
1420828,94009,LUBSKO,14.98333333,51.8,7,221,118,1,251149996
1420829,94010,KANIÓW,14.91666667,51.93333333,7,221,118,1,251140020
1420830,94011,GUBIN,14.76666667,51.95,7,221,118,1,251140010
1420831,94012,ZASIEKI,14.66666667,51.75,7,221,118,1,251149999
1420832,94013,SANICE,14.97583333,51.40694444,7,221,118,1,251140110
1420833,94101,GRABISZYCE GÓRNE,15.2,51.0,7,221,118,1,251159992
1420834,94102,ŚWIECIE,15.27888889,51.00361111,7,221,118,1,251150370
1420835,94103,LUBOMIERZ,15.51666667,51.01666667,7,221,118,1,251150350
1420836,94105,ŚWIERZAWA,15.9,51.01666667,7,221,118,1,251150360
1420837,94107,BIERNA,15.11666667,51.03333333,7,221,118,1,251150320
1420838,94108,LEŚNA,15.26666667,51.03333333,7,221,118,1,251150330
1420839,94110,GRYFÓW ŚLĄSKI,15.40944444,51.02666667,7,221,118,1,251150340
1420840,94111,SOKOŁOWIEC,15.83333333,51.03333333,7,221,118,1,251159991
1420841,94112,PŁAWNA,15.6,51.05,7,221,118,1,251150310
1420842,94114,SULIKÓW,15.06666667,51.08333333,7,221,118,1,251150290
1420843,94116,TWARDOCICE,15.75,51.1,7,221,118,1,251150280
1420844,94118,LUBAŃ,15.3,51.1,7,221,118,1,251159990
1420845,94119,SIEKIERCZYN,15.19055556,51.10583333,7,221,118,1,251150260
1420846,94121,ZŁOTORYJA,15.93333333,51.11666667,7,221,118,1,251150270
1420847,94123,NOWOGRODZIEC,15.4,51.2,7,221,118,1,251150220
1420848,94124,IWINY,15.7,51.2,7,221,118,1,251150230
1420849,94125,ZAGRODNO,15.86666667,51.2,7,221,118,1,251150240
1420850,94126,PIEŃSK,15.05,51.25,7,221,118,1,251150210
1420851,94127,OKMIANY,15.78333333,51.26666667,7,221,118,1,251159994
1420852,94128,WĘGLINIEC,15.2,51.28333333,7,221,118,1,251150170
1420853,94129,CHOJNÓW,15.93333333,51.28333333,7,221,118,1,251150190
1420854,94133,PRZEJĘSŁAW,15.41666667,51.36666667,7,221,118,1,251150160
1420855,94135,KOŚCIELNA WIEŚ,15.2,51.41666667,7,221,118,1,251150140
1420856,94136,CHOCIANÓW,15.91666667,51.41666667,7,221,118,1,251150150
1420857,94137,ŁOZY,15.36666667,51.48333333,7,221,118,1,251150130
1420858,94139,IŁOWA,15.2,51.5,7,221,118,1,251159995
1420859,94140,STRASZÓW,14.99222222,51.51888889,7,221,118,1,251140050
1420860,94142,BUCZYNA,15.9,51.55,7,221,118,1,251150120
1420861,94144,ŻAGAŃ,15.31666667,51.61666667,7,221,118,1,251150110
1420862,94145,GAWORZYCE,15.88333333,51.63333333,7,221,118,1,251150090
1420863,94146,DŁUGIE,15.61666667,51.65,7,221,118,1,251159998
1420864,94149,STYPUŁÓW,15.55,51.7,7,221,118,1,251150070
1420865,94150,BYTOM ODRZAŃSKI,15.83333333,51.73333333,7,221,118,1,251159989
1420866,94154,NOWOGRÓD BOBRZAŃSKI,15.25,51.8,7,221,118,1,251150030
1420867,94156,BOROWIEC,15.86666667,51.8,7,221,118,1,251150040
1420868,94159,LUBIĘCIN,15.85,51.9,7,221,118,1,251150020
1420869,94164,BOBROWICE,15.08333333,51.96666667,7,221,118,1,251150010
1420870,94165,KOŻUCHÓW,15.6,51.75,7,221,118,1,251159999
1420871,94166,NOWA SÓL,15.73333333,51.8,7,221,118,1,251150050
1420872,94167,ZŁOTNIKI LUBAŃSKIE,15.34055556,51.01388889,7,221,118,1,251150390
1420873,94168,STANKOWICE,15.31361111,51.01666667,7,221,118,1,251150420
1420874,94169,MIEDZIANA,15.11638889,51.02083333,7,221,118,1,251150470
1420875,94204,KĄTY WROCŁAWSKIE,16.76666667,51.03333333,7,221,118,1,251160310
1420876,94205,JAWOR,16.18333333,51.05,7,221,118,1,251160290
1420877,94206,STANISŁAWÓW,16.01666667,51.06666667,7,221,118,1,251160280
1420878,94208,BUDZISZÓW WIELKI,16.45,51.1,7,221,118,1,251160270
1420879,94209,BUDZISZÓW MAŁY,16.46666667,51.1,7,221,118,1,251169997
1420880,94211,TACZALIN,16.3,51.15,7,221,118,1,251160250
1420881,94213,WROCŁAW-STABŁOWICE,16.88333333,51.16666667,7,221,118,1,251160260
1420882,94216,MALCZYCE,16.5,51.21666667,7,221,118,1,251160240
1420883,94219,BRZEG DOLNY,16.71666667,51.26666667,7,221,118,1,251160230
1420884,94221,OBORNIKI ŚLĄSKIE,16.91666667,51.3,7,221,118,1,251160220
1420885,94222,LISIEC,16.05,51.31666667,7,221,118,1,251169998
1420886,94223,WOŁÓW,16.65,51.33333333,7,221,118,1,251169994
1420887,94224,STRUPINA,16.81888889,51.38472222,7,221,118,1,251160210
1420888,94225,LUBIN,16.21694444,51.41194444,7,221,118,1,251160190
1420889,94226,ŚCINAWA,16.41666667,51.41666667,7,221,118,1,251160180
1420890,94227,ŻMIGRÓD,16.9,51.46666667,7,221,118,1,251160160
1420891,94228,RUDNA,16.26666667,51.51666667,7,221,118,1,251160140
1420892,94231,WYDAWY,16.95,51.56666667,7,221,118,1,251160130
1420893,94234,OSETNO,16.46666667,51.63333333,7,221,118,1,251160110
1420894,94235,WIERZA (WIEWIERZ),16.71666667,51.63333333,7,221,118,1,251160120
1420895,94236,GŁOGÓW,16.1,51.65,7,221,118,1,251160080
1420896,94238,GÓRA,16.55,51.66666667,7,221,118,1,251160090
1420897,94241,CIOŁKOWO,16.96666667,51.75,7,221,118,1,251160070
1420898,94242,STARE DRZEWCE,16.21666667,51.76666667,7,221,118,1,251169991
1420899,94243,TARNOWA ŁĄKA,16.61666667,51.76666667,7,221,118,1,251160060
1420900,94244,JANISZEWO,16.76666667,51.76666667,7,221,118,1,251169990
1420901,94246,STARE STRĄCZE,16.16666667,51.85,7,221,118,1,251160040
1420902,94248,KRZEMIENIEWO,16.83333333,51.85,7,221,118,1,251160050
1420903,94250,SZRENIAWA,16.05,51.93333333,7,221,118,1,251169989
1420904,94252,RADOMICKO,16.53333333,51.95,7,221,118,1,251160030
1420905,94253,CZERWONA WIEŚ,16.8,51.96666667,7,221,118,1,251160020
1420906,94255,WROCŁAW-STRACHOWICE,16.88166667,51.11361111,7,221,118,1,251160340
1420907,94256,ŹRÓDŁA,16.7225,51.15666667,7,221,118,1,251160370
1420908,94257,PYSZĄCA,16.67972222,51.25638889,7,221,118,1,251160420
1420909,94303,WŁOCHY,17.91666667,51.06666667,7,221,118,1,251170310
1420910,94304,WROCŁAW-BISKUPIN,17.1,51.1,7,221,118,1,251179997
1420911,94305,WROCŁAW-OGRÓD BOTANICZNY,17.05,51.11666667,7,221,118,1,251170280
1420912,94306,BIERUTÓW,17.55,51.13333333,7,221,118,1,251170270
1420913,94308,RYCHTAL,17.85,51.15,7,221,118,1,251170260
1420914,94312,LIGOTA PIĘKNA,17.05,51.23333333,7,221,118,1,251170240
1420915,94313,SOKOŁOWICE,17.45,51.23333333,7,221,118,1,251170250
1420916,94314,TRZEBNICA,17.06666667,51.3,7,221,118,1,251170210
1420917,94315,ŁUCZYNA,17.28333333,51.3,7,221,118,1,251170230
1420918,94316,SYCÓW,17.73333333,51.31666667,7,221,118,1,251170220
1420919,94317,CHEŁSTÓW,17.49694444,51.33944444,7,221,118,1,251170190
1420920,94319,MIĘDZYBÓRZ,17.66666667,51.4,7,221,118,1,251170180
1420921,94320,BRZEZIE,17.13333333,51.41666667,7,221,118,1,251170170
1420922,94321,OSTRZESZÓW,17.92444444,51.42833333,7,221,118,1,251170160
1420923,94323,SUŁÓW,17.16666667,51.5,7,221,118,1,251179996
1420924,94324,CZARNY LAS,17.76666667,51.5,7,221,118,1,251179995
1420925,94325,CZATKOWICE,17.38333333,51.51666667,7,221,118,1,251179998
1420926,94326,MILICZ,17.26666667,51.53333333,7,221,118,1,251170140
1420927,94327,ODOLANÓW,17.66666667,51.58333333,7,221,118,1,251170130
1420928,94328,UJAZD,17.43333333,51.63333333,7,221,118,1,251179994
1420929,94329,OSTRÓW WIELKOPOLSKI,17.65,51.65,7,221,118,1,251170120
1420930,94330,SIELEC STARY,17.15,51.65,7,221,118,1,251179999
1420931,94331,KROTOSZYN,17.43333333,51.7,7,221,118,1,251170110
1420932,94335,SOBÓTKA,17.86666667,51.78333333,7,221,118,1,251170080
1420933,94336,SKAŁÓW,17.38333333,51.8,7,221,118,1,251170070
1420934,94338,KOŹMIN WIELKOPOLSKI,17.45,51.81666667,7,221,118,1,251170050
1420935,94339,TRZEBOWA,17.66666667,51.81666667,7,221,118,1,251170060
1420936,94340,SZELEJEWO,17.16666667,51.86666667,7,221,118,1,251170040
1420937,94346,DOLSK,17.06666667,51.98333333,7,221,118,1,251170010
1420938,94347,CHOCZ,17.87972222,51.97444444,7,221,118,1,251170020
1420939,94352,TRĄBINEK,17.09472222,51.99583333,7,221,118,1,251170370
1420940,94353,KSIĘGINICE,17.07638889,51.32888889,7,221,118,1,251170390
1420941,94354,SOBÓTKA II,17.85861111,51.78416667,7,221,118,1,251170410
1420942,94355,ŁANY,17.18222222,51.07388889,7,221,118,1,251170420
1420943,94356,OSTRZESZÓW II,17.91555556,51.43444444,7,221,118,1,251170430
1420944,94401,JASTRZYGOWICE,18.33333333,51.0,7,221,118,1,251180240
1420945,94403,ROŻNÓW,18.13333333,51.05,7,221,118,1,251180230
1420946,94405,CISOWA,18.71666667,51.08333333,7,221,118,1,251180220
1420947,94406,ROSZKOWICE,18.26666667,51.11666667,7,221,118,1,251189996
1420948,94407,DZIAŁOSZYN,18.88333333,51.13333333,7,221,118,1,251180210
1420949,94409,SIEMIANICE,18.15,51.18333333,7,221,118,1,251180190
1420950,94410,SIEMKOWICE,18.95,51.21666667,7,221,118,1,251180180
1420951,94414,KĘPNO,18.0,51.28333333,7,221,118,1,251189998
1420952,94416,OSJAKÓW,18.78472222,51.28361111,7,221,118,1,251180160
1420953,94421,ZŁOCZEW,18.61666667,51.41666667,7,221,118,1,251180140
1420954,94422,WIDAWA,18.95,51.43333333,7,221,118,1,251180130
1420955,94424,CZARTORYJA,18.5,51.5,7,221,118,1,251180120
1420956,94425,KRASZEWICE,18.21666667,51.51666667,7,221,118,1,251180110
1420957,94427,ZDUŃSKA WOLA,18.93333333,51.6,7,221,118,1,251189995
1420958,94429,IWANOWICE,18.31583333,51.65305556,7,221,118,1,251180080
1420959,94432,SZADEK,18.98333333,51.7,7,221,118,1,251180070
1420960,94433,WARTA,18.63333333,51.71666667,7,221,118,1,251180060
1420961,94437,KOŹMINEK,18.35,51.8,7,221,118,1,251189999
1420962,94442,PODDĘBICE,18.96666667,51.9,7,221,118,1,251180040
1420963,94443,DOBRA,18.63333333,51.93333333,7,221,118,1,251180030
1420964,94444,ZBIERSK,18.15,51.95,7,221,118,1,251180020
1420965,94446,UNIEJÓW,18.8,51.96666667,7,221,118,1,251180010
1420966,94450,MIRKÓW,18.15,51.31666667,7,221,118,1,251180150
1420967,94451,LISKÓW,18.41,51.83527778,7,221,118,1,251180050
1420968,94452,KIEŁCZYGŁÓW,18.98361111,51.23833333,7,221,118,1,251180170
1420969,94453,SEMPÓŁKI,18.81694444,51.94416667,7,221,118,1,251180340
1420970,94454,WARTA II,18.60972222,51.71555556,7,221,118,1,251180360
1420971,94455,KORZEKWIN,18.32638889,51.66888889,7,221,118,1,251180370
1420972,94456,SKOMLIN,18.37333333,51.17111111,7,221,118,1,251180380
1420973,94457,ZBIERSK II,18.11388889,51.95611111,7,221,118,1,251180410
1420974,94458,ZAŁĘCZE WIELKIE,18.68527778,51.08555556,7,221,118,1,251180420
1420975,94502,BOBRY,19.4,51.03333333,7,221,118,1,251190180
1420976,94503,WĄSOSZ GÓRNY,19.0,51.06666667,7,221,118,1,251190170
1420977,94505,RADOMSKO,19.43333333,51.08333333,7,221,118,1,251199993
1420978,94506,PRZEDBÓRZ,19.88333333,51.08333333,7,221,118,1,251190160
1420979,94507,RZEJOWICE,19.7,51.1,7,221,118,1,251199992
1420980,94508,DOBRYSZYCE,19.03444444,51.0025,7,221,118,1,251190150
1420981,94510,SULMIERZYCE,19.21666667,51.2,7,221,118,1,251199991
1420982,94511,SKOTNIKI,19.93333333,51.2,7,221,118,1,251199994
1420983,94516,SZCZERCÓW,19.11666667,51.33333333,7,221,118,1,251190130
1420984,94518,MILEJÓW,19.71666667,51.35,7,221,118,1,251199990
1420985,94519,PIOTRKÓW TRYBUNALSKI,19.65,51.4,7,221,118,1,251190120
1420986,94521,ŻARNOWICA,19.86666667,51.46666667,7,221,118,1,251199989
1420987,94523,LUTOSŁAWICE RZĄDOWE,19.56666667,51.51666667,7,221,118,1,251190090
1420988,94524,MOSZCZENICA,19.71666667,51.5,7,221,118,1,251199988
1420989,94526,DRZEWOCINY,19.31666667,51.53333333,7,221,118,1,251199996
1420990,94528,KRUSZÓW,19.58333333,51.58333333,7,221,118,1,251190080
1420991,94530,ŁASK,19.13333333,51.6,7,221,118,1,251190070
1420992,94533,ROKICINY,19.78333333,51.66666667,7,221,118,1,251190060
1420993,94542,WILANÓW,19.53333333,51.81666667,7,221,118,1,251190030
1420994,94547,BRATOSZEWICE,19.65,51.93333333,7,221,118,1,251190010
1420995,94548,OZORKÓW,19.31666667,51.96666667,7,221,118,1,251199987
1420996,94550,ŁYSZKOWICE,19.91666667,51.98333333,7,221,118,1,251199986
1420997,94551,PLUCICE,19.6,51.2,7,221,118,1,251190140
1420998,94552,JEŻÓW,19.96666667,51.81666667,7,221,118,1,251190040
1420999,94553,LUĆMIERZ,19.37111111,51.89194444,7,221,118,1,251190020
1421000,94554,MIKULIN,19.98333333,51.83333333,7,221,118,1,251199998
1421001,94555,BEŁCHATÓW,19.36666667,51.4,7,221,118,1,251190110
1421002,94556,JAROSTY,19.69194444,51.4625,7,221,118,1,251190230
1421003,94557,CHAJCZYNY,19.1075,51.46916667,7,221,118,1,251190260
1421004,94603,PILCZYCA,20.1,51.03333333,7,221,118,1,251200260
1421005,94604,SUCHEDNIÓW,20.83333333,51.03333333,7,221,118,1,251200250
1421006,94607,WIELKA WIEŚ,20.98333333,51.08333333,7,221,118,1,251200230
1421007,94609,MROCZKÓW,20.71666667,51.15,7,221,118,1,251200190
1421008,94610,KOŃSKIE,20.4,51.18333333,7,221,118,1,251200180
1421009,94611,CHEŁSTY,20.15,51.21666667,7,221,118,1,251200170
1421010,94620,ŁOKIETKA,20.15,51.46666667,7,221,118,1,251209997
1421011,94622,ODRZYWÓŁ,20.56666667,51.51666667,7,221,118,1,251200110
1421012,94624,SPAŁA,20.13333333,51.53333333,7,221,118,1,251200090
1421013,94626,BUKÓWNO,20.85,51.55,7,221,118,1,251209996
1421014,94630,BIAŁOBRZEGI,20.95083333,51.65722222,7,221,118,1,251200080
1421015,94631,WÓLKA JAGIELCZYŃSKA,20.18333333,51.68333333,7,221,118,1,251200070
1421016,94632,TĄKIELE,20.81666667,51.71666667,7,221,118,1,251209993
1421017,94633,SADKOWICE,20.51666667,51.73333333,7,221,118,1,251200050
1421018,94636,BIAŁA RAWSKA,20.46666667,51.8,7,221,118,1,251209995
1421019,94638,DOLECK,20.31666667,51.9,7,221,118,1,251200040
1421020,94643,MSZCZONÓW,20.53333333,51.98333333,7,221,118,1,251200010
1421021,94644,DROZDY,20.81666667,51.98333333,7,221,118,1,251200020
1421022,94651,OPOCZNO,20.23333333,51.38333333,7,221,118,1,251200130
1421023,94652,RUSINÓW,20.68333333,51.28333333,7,221,118,1,251209994
1421024,94653,SŁOWIKÓW,20.88333333,51.46666667,7,221,118,1,251200120
1421025,94654,STANOWISKA,20.36666667,51.05,7,221,118,1,251200240
1421026,94655,SKARŻYSKO KAMIENNA,20.88333333,51.13333333,7,221,118,1,251200210
1421027,94656,DAŃKÓW,20.7,51.73333333,7,221,118,1,251200060
1421028,94657,WŁOCHÓW,20.61,51.09833333,7,221,118,1,251200220
1421029,94658,RZUCÓW,20.73333333,51.3,7,221,118,1,251200160
1421030,94659,RUSZKOWICE,20.0525,51.03333333,7,221,118,1,251200140
1421031,94660,DĄBRÓWKA STARA,20.73333333,51.76666667,7,221,118,1,251200270
1421032,94661,TEOFILÓW,20.18277778,51.52805556,7,221,118,1,251200290
1421033,94701,TARŁÓW,21.71666667,51.0,7,221,118,1,251219995
1421034,94702,MAZANÓW,21.91666667,51.0,7,221,118,1,251210260
1421035,94703,BRODY IŁŻECKIE,21.2,51.01666667,7,221,118,1,251210240
1421036,94704,KURZACZE,21.36666667,51.01666667,7,221,118,1,251210250
1421037,94705,STARACHOWICE,21.05333333,51.04138889,7,221,118,1,251210230
1421038,94706,OSÓWKA,21.56666667,51.08333333,7,221,118,1,251210220
1421039,94707,GADKA,21.0,51.13333333,7,221,118,1,251210170
1421040,94708,SOLEC NAD WISLĄ,21.75,51.13333333,7,221,118,1,251210180
1421041,94709,IŁŻA,21.23333333,51.16666667,7,221,118,1,251210160
1421042,94714,CIEPIELÓW,21.6,51.26666667,7,221,118,1,251210150
1421043,94715,SKARYSZEW,21.25,51.31666667,7,221,118,1,251210140
1421044,94716,KAZIMIERZ DOLNY,21.95,51.33333333,7,221,118,1,251219998
1421045,94717,ZWOLEŃ,21.58333333,51.35,7,221,118,1,251210130
1421046,94721,PIONKI,21.4375,51.47166667,7,221,118,1,251210110
1421047,94723,BARTODZIEJE,21.2,51.53333333,7,221,118,1,251210090
1421048,94724,DĘBLIN,21.8,51.55,7,221,118,1,251210080
1421049,94729,KOZICE (ŻYCZYN),21.75,51.66666667,7,221,118,1,251210070
1421050,94730,ŁĘKAWICA,21.31666667,51.71666667,7,221,118,1,251210060
1421051,94732,BOGLEWICE,21.0,51.8,7,221,118,1,251210050
1421052,94734,WILGA,21.38333333,51.85,7,221,118,1,251210030
1421053,94735,UNIN KOLONIA,21.68333333,51.9,7,221,118,1,251210020
1421054,94739,GÓRA KALWARIA,21.2,51.98333333,7,221,118,1,251210010
1421055,94742,OPOLE LUBELSKIE,21.94555556,51.14583333,7,221,118,1,251210190
1421056,94743,GRABOWIEC,21.38527778,51.10194444,7,221,118,1,251210210
1421057,94744,BASINÓW,21.35444444,51.68861111,7,221,118,1,251210270
1421058,94750,CELEJÓW,21.35694444,51.86111111,7,221,118,1,251210280
1421059,94751,SARNÓWEK DUŻY,21.44416667,51.01722222,7,221,118,1,251210290
1421060,94752,CZARNA KOLONIA,21.45111111,51.43138889,7,221,118,1,251210310
1421061,94805,KĘPA,22.25166667,51.06277778,7,221,118,1,251220190
1421062,94807,CHODEL,22.13333333,51.11666667,7,221,118,1,251220170
1421063,94808,PSZCZELA WOLA,22.51666667,51.11666667,7,221,118,1,251220180
1421064,94810,PIASKI,22.85,51.13333333,7,221,118,1,251220160
1421065,94816,ŁĘCZNA,22.9,51.3,7,221,118,1,251220150
1421066,94818,KRASIENIN,22.46666667,51.36666667,7,221,118,1,251220120
1421067,94822,LUBARTÓW,22.6,51.46666667,7,221,118,1,251220090
1421068,94824,MICHÓW,22.31666667,51.51666667,7,221,118,1,251220080
1421069,94827,KOCK,22.45,51.63333333,7,221,118,1,251229995
1421070,94829,CZEMIERNIKI,22.61666667,51.66666667,7,221,118,1,251220060
1421071,94835,PRZEGALINY DUŻE,22.88333333,51.83333333,7,221,118,1,251220030
1421072,94838,ŁUKÓW,22.36666667,51.91666667,7,221,118,1,251220020
1421073,94840,JEDLANKA,22.1,51.93333333,7,221,118,1,251229994
1421074,94842,MIĘDZYRZEC PODLASKI,22.78333333,51.98333333,7,221,118,1,251220010
1421075,94850,WOLA OKRZEJSKA,22.15,51.73333333,7,221,118,1,251220050
1421076,94852,CZESŁAWICE,22.25472222,51.30361111,7,221,118,1,251220140
1421077,94853,NOWA WIEŚ,22.7425,51.44944444,7,221,118,1,251220110
1421078,94854,SKOWIESZYNEK,22.01666667,51.31666667,7,221,118,1,251220130
1421079,94855,SZCZEKARKÓW,22.64027778,51.49805556,7,221,118,1,251220210
1421080,94856,SOBIESZYN,22.15083333,51.60805556,7,221,118,1,251220220
1421081,94898,RADZYŃ PODLASKI,22.60027778,51.76972222,7,221,118,1,251220040
1421082,94901,ŻMUDŹ,23.66666667,51.01666667,7,221,118,1,251230180
1421083,94904,DUBIENKA,23.88333333,51.05,7,221,118,1,251239998
1421084,94906,KANIE,23.11666667,51.15,7,221,118,1,251230130
1421085,94907,CHEŁM,23.5,51.15,7,221,118,1,251230140
1421086,94908,DOROHUSK,23.8,51.15,7,221,118,1,251230150
1421087,94911,RUDA OPALIN,23.6,51.26666667,7,221,118,1,251230110
1421088,94913,GARBATÓWKA,23.1,51.35,7,221,118,1,251230090
1421089,94915,HAŃSK,23.4,51.4,7,221,118,1,251230080
1421090,94917,PIESZOWOLA,23.16666667,51.5,7,221,118,1,251230070
1421091,94919,TUCZNA,23.41666667,51.88333333,7,221,118,1,251239996
1421092,94921,MOSTY,23.28333333,51.65,7,221,118,1,251230050
1421093,94924,SŁAWATYCZE,23.53333333,51.76666667,7,221,118,1,251230040
1421094,94925,WISZNICE,23.2,51.78333333,7,221,118,1,251230030
1421095,94926,ŁOMAZY,23.18333333,51.9,7,221,118,1,251230020
1421096,94927,KODEŃ,23.61666667,51.93333333,7,221,118,1,251230010
1421097,94950,KOLONIA ZAKRĘCIE,23.11666667,51.01666667,7,221,118,1,251230170
1421098,94951,ZAGRODA,23.4,51.08333333,7,221,118,1,251230160
1421099,94952,UHNIN,23.06805556,51.57111111,7,221,118,1,251230060
1421100,94953,DUBICA GÓRNA,23.18222222,51.78138889,7,221,118,1,251230210
1421101,95001,SIENIAWKA,14.82944444,50.8875,7,221,118,1,250140020
1421102,95050,BOGATYNIA,14.98333333,50.9,7,221,118,1,250149999
1421103,95102,BUKÓWKA,15.96666667,50.71666667,7,221,118,1,250150260
1421104,95103,JARKOWICE,15.88333333,50.73333333,7,221,118,1,250150230
1421105,95104,PACZYN,15.91666667,50.73333333,7,221,118,1,250150240
1421106,95110,PRZESIEKA,15.68333333,50.78333333,7,221,118,1,250150210
1421107,95112,KOWARY,15.85,50.8,7,221,118,1,250150190
1421108,95113,JAKUSZYCE,15.45,50.81666667,7,221,118,1,250159999
1421109,95114,JAGNIĄTKÓW,15.61666667,50.81666667,7,221,118,1,250150180
1421110,95119,MYSŁAKOWICE,15.78333333,50.85,7,221,118,1,250150140
1421111,95122,CIECHANOWICE,15.98333333,50.86666667,7,221,118,1,250150130
1421112,95123,KOPANIEC,15.55,50.88333333,7,221,118,1,250150120
1421113,95124,STARA KAMIENICA,15.56666667,50.91666667,7,221,118,1,250150080
1421114,95125,KACZORÓW,15.96666667,50.91666667,7,221,118,1,250150110
1421115,95126,GIERCZYN,15.4,50.93333333,7,221,118,1,250150070
1421116,95129,POBIEDNA,15.3,50.95,7,221,118,1,250150030
1421117,95130,RĘBISZÓW,15.45,50.95,7,221,118,1,250150060
1421118,95131,WYSZKÓW,14.99277778,50.9675,7,221,118,1,250140010
1421119,95132,JANICE,15.53333333,50.96666667,7,221,118,1,250150040
1421120,95133,PILCHOWICE,15.65,50.96666667,7,221,118,1,250150050
1421121,95135,CHROŚNICA,15.78333333,50.98333333,7,221,118,1,250150010
1421122,95136,WOJCIESZÓW,15.91666667,50.98333333,7,221,118,1,250150020
1421123,95137,MIRSK,15.38333333,50.98694444,7,221,118,1,250150510
1421124,95201,NIEMOJÓW,16.58333333,50.15,7,221,118,1,250160640
1421125,95202,MIĘDZYLESIE,16.66666667,50.15,7,221,118,1,250160650
1421126,95206,NOWA MORAWA,16.91666667,50.23333333,7,221,118,1,250169993
1421127,95207,MIĘDZYGÓRZE,16.76666667,50.23333333,7,221,118,1,250160630
1421128,95210,STRONIE ŚLĄSKIE,16.88333333,50.28333333,7,221,118,1,250160560
1421129,95211,NOWY GIERAŁTÓW,16.98333333,50.3,7,221,118,1,250160570
1421130,95212,LASÓWKA,16.45,50.31666667,7,221,118,1,250169991
1421131,95213,ZIELENIEC,16.4,50.33333333,7,221,118,1,250160530
1421132,95216,OŁDRZYCHOWICE KŁODZKIE,16.73444444,50.35638889,7,221,118,1,250160510
1421133,95217,LEWIN KŁODZKI,16.3,50.41666667,7,221,118,1,250160470
1421134,95219,PODZAMEK,16.76666667,50.43333333,7,221,118,1,250160460
1421135,95220,CHOCIESZÓW,16.48333333,50.46666667,7,221,118,1,250160430
1421136,95221,ZŁOTY STOK,16.88333333,50.45,7,221,118,1,250160440
1421137,95222,PASTERKA,16.33333333,50.48333333,7,221,118,1,250160420
1421138,95223,BARDO ŚLĄSKIE,16.74444444,50.50916667,7,221,118,1,250160410
1421139,95224,KAMIENIEC ZĄBKOWICKI,16.86666667,50.51666667,7,221,118,1,250160390
1421140,95225,RZECZKA,16.4475,50.67666667,7,221,118,1,250161030
1421141,95227,NOWA RUDA-SŁUPIEC,16.53472222,50.54194444,7,221,118,1,250160370
1421142,95228,NOWA RUDA,16.53333333,50.56666667,7,221,118,1,250169995
1421143,95229,SREBRNA GÓRA,16.66666667,50.58333333,7,221,118,1,250160350
1421144,95232,DWORKI,16.43333333,50.61666667,7,221,118,1,250160340
1421145,95233,JUGÓW,16.53333333,50.61666667,7,221,118,1,250169996
1421146,95235,UNIEMYŚL,16.05,50.63333333,7,221,118,1,250169997
1421147,95237,CHEŁMSKO ŚLĄSKIE,16.06666667,50.66666667,7,221,118,1,250160290
1421148,95238,MIEROSZÓW,16.18333333,50.66666667,7,221,118,1,250160310
1421149,95241,GŁUSZYCA,16.36666667,50.68333333,7,221,118,1,250169990
1421150,95242,PIŁAWA GÓRNA,16.75,50.68333333,7,221,118,1,250160280
1421151,95244,WALIM,16.45,50.7,7,221,118,1,250160270
1421152,95245,UNISŁAW ŚLĄSKI,16.25,50.81666667,7,221,118,1,250160240
1421153,95246,ROŚCISZÓW,16.51666667,50.71666667,7,221,118,1,250160250
1421154,95247,JEDLINA-ZDRÓJ,16.35,50.73333333,7,221,118,1,250160220
1421155,95248,DZIERŻONIÓW,16.65,50.73333333,7,221,118,1,250160260
1421156,95249,NIEMCZA,16.85,50.73333333,7,221,118,1,250160230
1421157,95250,KRZESZÓW,16.06666667,50.75,7,221,118,1,250160180
1421158,95252,BOGUSZÓW-GORCE,16.18861111,50.74527778,7,221,118,1,250160190
1421159,95254,KAMIENNA GÓRA,16.03777778,50.7675,7,221,118,1,250160150
1421160,95255,WAŁBRZYCH,16.31666667,50.76666667,7,221,118,1,250160160
1421161,95256,LUBACHÓW,16.43333333,50.76666667,7,221,118,1,250160170
1421162,95258,LUBOMIN,16.2,50.8,7,221,118,1,250160120
1421163,95259,ŁAGIEWNIKI,16.85,50.8,7,221,118,1,250160140
1421164,95261,GOSTKÓW,16.1,50.85,7,221,118,1,250160110
1421165,95262,MYSŁAKÓW,16.65,50.86666667,7,221,118,1,250160080
1421166,95264,BOLESŁAWICE,16.4625,50.89472222,7,221,118,1,250160050
1421167,95265,SOBÓTKA,16.75,50.9,7,221,118,1,250160060
1421168,95267,BOLKÓW,16.13333333,50.91666667,7,221,118,1,250160030
1421169,95268,DOBROMIERZ,16.25,50.91666667,7,221,118,1,250160040
1421170,95271,STRZEGOM,16.35,50.96666667,7,221,118,1,250160010
1421171,95272,IMBRAMOWICE,16.56666667,50.96666667,7,221,118,1,250160020
1421172,95275,GNIECHOWICE,16.83333333,50.98333333,7,221,118,1,250169999
1421173,95276,KAMIENICA,16.88333333,50.21666667,7,221,118,1,250160620
1421174,95277,WAŁBRZYCH II,16.3,50.73333333,7,221,118,1,250160210
1421175,95278,MŁOTY,16.53333333,50.3,7,221,118,1,250160540
1421176,95279,BYSTRZYCA KŁODZKA,16.65,50.3,7,221,118,1,250160550
1421177,95280,SPALONA,16.55,50.28333333,7,221,118,1,250160580
1421178,95281,OSTROSZOWICE,16.63333333,50.65,7,221,118,1,250160320
1421179,95282,GAJÓW,16.41666667,50.53333333,7,221,118,1,250160380
1421180,95283,KUDOWA-ZDRÓJ,16.20194444,50.43888889,7,221,118,1,250160450
1421181,95285,ŚWIERKI,16.41944444,50.62527778,7,221,118,1,250160730
1421182,95286,SZALEJÓW GÓRNY,16.5525,50.43055556,7,221,118,1,250160840
1421183,95287,UNISŁAW ŚLĄSKI II,16.2325,50.71083333,7,221,118,1,250160890
1421184,95288,SREBRNA GÓRA II,16.66833333,50.58083333,7,221,118,1,250160910
1421185,95289,PSZENNO-ZACISZE,16.53777778,50.85333333,7,221,118,1,250160990
1421186,95298,POLANICA-ZDRÓJ,16.51833333,50.42527778,7,221,118,1,250160490
1421187,95299,ZIELENIEC II,16.39916667,50.34444444,7,221,118,1,250161020
1421188,95301,JAKUBOWICE,17.85,50.01666667,7,221,118,1,250179995
1421189,95302,TURKÓW,17.86666667,50.01666667,7,221,118,1,250170440
1421190,95303,BRANICE,17.8,50.05,7,221,118,1,250170430
1421191,95304,LUBOTYŃ,17.95,50.05,7,221,118,1,250179993
1421192,95305,WOJNOWICE,17.08416667,50.00194444,7,221,118,1,250170420
1421193,95307,PIELGRZYMÓW,17.68333333,50.18333333,7,221,118,1,250170380
1421194,95309,BIELICE,17.0,50.26666667,7,221,118,1,250170350
1421195,95310,ŚCIBORZYCE MAŁE,17.78333333,50.26666667,7,221,118,1,250170360
1421196,95311,JARNOŁTÓWEK,17.45,50.28333333,7,221,118,1,250170340
1421197,95313,GŁOGÓWEK,17.86666667,50.35,7,221,118,1,250170310
1421198,95315,ŁĄKA,17.21666667,50.38333333,7,221,118,1,250179992
1421199,95318,DZIEWIĘTLICE,17.1,50.41666667,7,221,118,1,250170290
1421200,95319,WIERZBIĘCICE,17.43333333,50.41666667,7,221,118,1,250179991
1421201,95321,ZIELINA,17.8,50.45,7,221,118,1,250170280
1421202,95322,POGÓRZE,17.68333333,50.46666667,7,221,118,1,250170260
1421203,95323,KRAPKOWICE,17.95,50.46666667,7,221,118,1,250170270
1421204,95324,PACZKÓW,17.01666667,50.48333333,7,221,118,1,250170220
1421205,95325,NYSA,17.35,50.48333333,7,221,118,1,250170230
1421206,95327,ROGÓW OPOLSKI,17.95,50.51666667,7,221,118,1,250170210
1421207,95328,GOWOROWICE,17.13333333,50.55,7,221,118,1,250170190
1421208,95329,CZARNOLAS,17.31666667,50.6,7,221,118,1,250170170
1421209,95331,SZYDŁÓW,17.73333333,50.6,7,221,118,1,250170180
1421210,95332,PRÓSZKÓW,17.88333333,50.6,7,221,118,1,250179996
1421211,95333,ZIĘBICE,17.05,50.61666667,7,221,118,1,250170160
1421212,95334,WITOSTOWICE,17.05,50.68333333,7,221,118,1,250170130
1421213,95335,SZYDŁOWIEC ŚLĄSKI,17.61666667,50.68333333,7,221,118,1,250170150
1421214,95337,PRZEWORNO,17.16833333,50.68666667,7,221,118,1,250170120
1421215,95341,STRZELIN,17.06611111,50.79222222,7,221,118,1,250170090
1421216,95342,GOLCZOWICE OPOLSKIE,17.75,50.78333333,7,221,118,1,250179997
1421217,95344,STARE SIOŁKOWICE,17.76666667,50.8,7,221,118,1,250170080
1421218,95345,WIĄZÓW,17.2,50.81666667,7,221,118,1,250170060
1421219,95346,KUP,17.88333333,50.81666667,7,221,118,1,250170070
1421220,95347,BRZEG,17.48333333,50.86666667,7,221,118,1,250170050
1421221,95348,BORÓW,16.99,50.88222222,7,221,118,1,250160070
1421222,95352,LUBICZ,17.57361111,50.90277778,7,221,118,1,250170040
1421223,95353,OŁAWA,17.33333333,50.93333333,7,221,118,1,250170030
1421224,95356,ŻÓRAWINA,17.05,50.98333333,7,221,118,1,250170010
1421225,95357,BIESTRZYKOWICE,17.76666667,50.98333333,7,221,118,1,250170020
1421226,95360,PRUDNIK,17.57444444,50.3025,7,221,118,1,250170530
1421227,95361,RACŁAWICE ŚLĄSKIE,17.7775,50.30833333,7,221,118,1,250170540
1421228,95362,DĄBRÓWKA GÓRNA,17.93027778,50.53583333,7,221,118,1,250170550
1421229,95363,KOPICE,17.47611111,50.64583333,7,221,118,1,250170730
1421230,95364,NIEMODLIN,17.6625,50.64777778,7,221,118,1,250170740
1421231,95365,GOŚCIEJOWICE,17.62305556,50.65166667,7,221,118,1,250170760
1421232,95401,BORUCIN,18.16666667,50.01666667,7,221,118,1,250189987
1421233,95405,LIGOTA TWORKOWSKA,18.26666667,50.03333333,7,221,118,1,250189985
1421234,95407,ŻORY,18.7,50.05,7,221,118,1,250180560
1421235,95409,RYDUŁTOWY,18.43333333,50.06666667,7,221,118,1,250180540
1421236,95410,KOBIÓR,18.91666667,50.06666667,7,221,118,1,250180550
1421237,95411,KIETRZ,18.01666667,50.08333333,7,221,118,1,250180530
1421238,95412,KRÓLÓWKA,18.78333333,50.08333333,7,221,118,1,250189988
1421239,95414,ADAMOWICE,18.33333333,50.13333333,7,221,118,1,250180460
1421240,95415,STANOWICE,18.66666667,50.13333333,7,221,118,1,250180470
1421241,95416,ORZESZE,18.76666667,50.13333333,7,221,118,1,250180480
1421242,95417,TYCHY,18.98333333,50.13333333,7,221,118,1,250180490
1421243,95418,BABORÓW,17.98333333,50.15,7,221,118,1,250170410
1421244,95419,ZWONOWICE,18.45,50.15,7,221,118,1,250180450
1421245,95421,MODZURÓW,18.13333333,50.16666667,7,221,118,1,250180440
1421246,95423,STANICE,18.51666667,50.2,7,221,118,1,250189989
1421247,95424,KRYWAŁD,18.63333333,50.21666667,7,221,118,1,250180430
1421248,95428,SOŚNICOWICE,18.55,50.26666667,7,221,118,1,250180390
1421249,95429,MAKOSZOWY,18.76666667,50.26666667,7,221,118,1,250180410
1421250,95430,URBANOWICE,18.03333333,50.3,7,221,118,1,250180360
1421251,95431,STARA KUŹNIA,18.35,50.3,7,221,118,1,250180370
1421252,95432,GLIWICE,18.63333333,50.3,7,221,118,1,250189986
1421253,95433,CHORZÓW-MIASTO,18.95,50.3,7,221,118,1,250189984
1421254,95435,LIPINY,18.9,50.31666667,7,221,118,1,250180350
1421255,95436,ŁABĘDY,18.61666667,50.33333333,7,221,118,1,250180330
1421256,95437,KOŹLE,18.15,50.35,7,221,118,1,250180320
1421257,95440,ROKITNICA,18.79833333,50.35555556,7,221,118,1,250180310
1421258,95441,UJAZD ŚLĄSKI,18.35,50.38333333,7,221,118,1,250180280
1421259,95442,TACISZÓW,18.53333333,50.38333333,7,221,118,1,250180290
1421260,95447,LEŚNICA,18.18333333,50.43333333,7,221,118,1,250189992
1421261,95448,ŁUBIE GÓRNE,18.65,50.45,7,221,118,1,250180260
1421262,95450,TOSZEK,18.51666667,50.46666667,7,221,118,1,250180240
1421263,95453,STRZELCE OPOLSKIE,18.31666667,50.5,7,221,118,1,250180220
1421264,95455,SIEDLEC,18.11666667,50.51666667,7,221,118,1,250189994
1421265,95457,TWORÓG,18.71666667,50.53333333,7,221,118,1,250189995
1421266,95458,ZIELONA,18.96666667,50.55,7,221,118,1,250180210
1421267,95459,KRUPSKI MŁYN,18.63333333,50.56666667,7,221,118,1,250180190
1421268,95460,BRUSIEK,18.81666667,50.58333333,7,221,118,1,250180180
1421269,95461,RASZOWA,18.13333333,50.6,7,221,118,1,250180150
1421270,95462,KADŁUB-PIEC,18.28333333,50.6,7,221,118,1,250180160
1421271,95463,ZAWADZKIE,18.48333333,50.6,7,221,118,1,250180170
1421272,95468,GRODZIEC,18.26666667,50.7,7,221,118,1,250180130
1421273,95469,DRONIOWICE,18.81666667,50.7,7,221,118,1,250180140
1421274,95470,TURAWA,18.1,50.73333333,7,221,118,1,250180090
1421275,95471,DOBRODZIEŃ,18.45,50.73333333,7,221,118,1,250180110
1421276,95473,ŁEBKI,18.76666667,50.78333333,7,221,118,1,250180080
1421277,95475,KOBYLNO,18.11666667,50.8,7,221,118,1,250189998
1421278,95476,SIERAKÓW,18.58333333,50.8,7,221,118,1,250189997
1421279,95477,SZUMIRAD,18.25,50.83333333,7,221,118,1,250180060
1421280,95479,DĘBINIEC,18.08333333,50.86666667,7,221,118,1,250180050
1421281,95482,KŁOBUCK,18.93333333,50.9,7,221,118,1,250180040
1421282,95483,KARMONKI NOWE,18.58333333,50.91666667,7,221,118,1,250180020
1421283,95484,BĄKÓW,18.31666667,50.96666667,7,221,118,1,250180010
1421284,95486,KRZEPICE,18.73333333,50.96666667,7,221,118,1,250189999
1421285,95489,STUDZIENICE,18.98333333,50.01666667,7,221,118,1,250189983
1421286,95490,NIWKI,18.68333333,50.81666667,7,221,118,1,250180070
1421287,95491,LIGOTA GÓRNA,18.15,50.48333333,7,221,118,1,250180230
1421288,95492,TWORÓG MAŁY,18.46666667,50.25,7,221,118,1,250180420
1421289,95493,RYBNIK,18.53333333,50.1,7,221,118,1,250180510
1421290,95494,WIESZOWA,18.77416667,50.38111111,7,221,118,1,250180610
1421291,95495,ORZECH,18.92472222,50.42361111,7,221,118,1,250180630
1421292,95503,OŚWIĘCIM,19.2,50.05,7,221,118,1,250190440
1421293,95504,MĘTKÓW,19.36666667,50.05,7,221,118,1,250190420
1421294,95505,KRAKÓW-BIELANY-KLASZTOR,19.85,50.05,7,221,118,1,250199987
1421295,95506,ALWERNIA,19.53333333,50.05,7,221,118,1,250190430
1421296,95508,KRZESZOWICE,19.63333333,50.13333333,7,221,118,1,250199989
1421297,95509,UJAZD,19.81666667,50.13333333,7,221,118,1,250199988
1421298,95510,CHRZANÓW,19.38333333,50.15,7,221,118,1,250190370
1421299,95511,NOWA GÓRA,19.6,50.16666667,7,221,118,1,250190360
1421300,95512,DZIEĆKOWICE,19.21666667,50.18333333,7,221,118,1,250190350
1421301,95513,MURCKI,19.05,50.2,7,221,118,1,250190330
1421302,95515,OJCÓW,19.83333333,50.2,7,221,118,1,250190340
1421303,95516,CIĘŻKOWICE,19.03333333,50.0175,7,221,118,1,250190320
1421304,95517,IWANOWICE,19.98333333,50.21666667,7,221,118,1,250199991
1421305,95521,MACZKI,19.26666667,50.26666667,7,221,118,1,250190310
1421306,95522,BOLESŁAW,19.46666667,50.26666667,7,221,118,1,250199992
1421307,95524,SOSNOWIEC,19.1,50.28333333,7,221,118,1,250199994
1421308,95529,TRZYCIĄŻ,19.78333333,50.31666667,7,221,118,1,250190280
1421309,95530,CZELADŹ,19.08333333,50.33333333,7,221,118,1,250190270
1421310,95533,CHECHŁO,19.51666667,50.36666667,7,221,118,1,250199995
1421311,95534,GOLCZOWICE,19.6,50.36666667,7,221,118,1,250190260
1421312,95536,WOLBROM,19.75,50.38333333,7,221,118,1,250190240
1421313,95540,ŁAZY,19.38333333,50.43333333,7,221,118,1,250190220
1421314,95541,RYCZÓW,19.6,50.41666667,7,221,118,1,250190230
1421315,95543,PILICA,19.61166667,50.45916667,7,221,118,1,250190210
1421316,95544,BRYNICA,19.0,50.46666667,7,221,118,1,250180250
1421317,95545,KĘPIE,19.93333333,50.46666667,7,221,118,1,250190190
1421318,95546,PIWOŃ,19.25,50.48333333,7,221,118,1,250190180
1421319,95549,ZAWIERCIE,19.41666667,50.5,7,221,118,1,250199996
1421320,95553,MYSZKÓW,19.34916667,50.56527778,7,221,118,1,250190540
1421321,95554,OŁUDZA,19.75,50.56666667,7,221,118,1,250199997
1421322,95559,ŻARKI,19.38333333,50.65,7,221,118,1,250190140
1421323,95561,HUTKI,19.0,50.68333333,7,221,118,1,250190130
1421324,95562,PORAJ,19.21666667,50.68333333,7,221,118,1,250199998
1421325,95563,LELÓW,19.63333333,50.68333333,7,221,118,1,250190110
1421326,95564,ZŁOTY POTOK,19.43333333,50.7,7,221,118,1,250190090
1421327,95570,KONIECPOL,19.71666667,50.8,7,221,118,1,250190070
1421328,95571,ŚWIĘTA ANNA,19.53333333,50.81666667,7,221,118,1,250199999
1421329,95572,CZARNCA,19.91666667,50.81666667,7,221,118,1,250190050
1421330,95574,CIELĘTNIKI,19.58333333,50.9,7,221,118,1,250190040
1421331,95575,NIEZNANICE,19.31666667,50.91666667,7,221,118,1,250190020
1421332,95576,CYKARZEW,19.18333333,50.95,7,221,118,1,250199986
1421333,95577,JANUSZEWICE,19.96666667,50.95,7,221,118,1,250190010
1421334,95580,BONOWICE,19.8,50.61666667,7,221,118,1,250190150
1421335,95581,KRĘCIWILK,19.36666667,50.55,7,221,118,1,250190170
1421336,95582,KOBYŁCZYCE,19.36666667,50.8,7,221,118,1,250190060
1421337,95583,WĄSOSZ,19.68583333,50.7375,7,221,118,1,250190080
1421338,95584,ZĄBKOWICE,19.2625,50.38361111,7,221,118,1,250190550
1421339,95585,SIEMIANOWICE ŚLĄSKIE,19.02305556,50.32527778,7,221,118,1,250190560
1421340,95586,WOJKOWICE,19.0575,50.37138889,7,221,118,1,250190570
1421341,95587,SOSNOWIEC-JULIUSZ,19.21888889,50.26527778,7,221,118,1,250190580
1421342,95605,BORZĘCIN,20.71666667,50.06666667,7,221,118,1,250200290
1421343,95606,PRUSY,20.08333333,50.11666667,7,221,118,1,250209986
1421344,95608,UŚCIE SOLNE,20.53333333,50.11666667,7,221,118,1,250209985
1421345,95611,JADOWNIKI MOKRE,20.73333333,50.16666667,7,221,118,1,250209987
1421346,95612,DĄBROWA TARNOWSKA,20.99,50.17777778,7,221,118,1,250200270
1421347,95613,JAKUBOWICE,20.31666667,50.18333333,7,221,118,1,250200260
1421348,95614,POLANOWICE,20.08333333,50.2,7,221,118,1,250209989
1421349,95615,SKRZESZOWICE,20.15,50.2,7,221,118,1,250209988
1421350,95616,RADZIEMICE,20.25,50.25,7,221,118,1,250200250
1421351,95617,KAZIMIERZA MAŁA,20.53333333,50.26666667,7,221,118,1,250200240
1421352,95618,SZCZEPANOWICE,20.03333333,50.3,7,221,118,1,250209991
1421353,95621,WIŚLICA,20.68333333,50.35,7,221,118,1,250209992
1421354,95624,CHROBERZ,20.6,50.43333333,7,221,118,1,250200190
1421355,95625,KSIĄŻ WIELKI,20.13333333,50.45,7,221,118,1,250200170
1421356,95626,STOPNICA,20.93333333,50.45,7,221,118,1,250200180
1421357,95628,WODZISŁAW,20.2,50.51666667,7,221,118,1,250209993
1421358,95629,STRZESZKOWICE,20.3,50.53333333,7,221,118,1,250209994
1421359,95630,KOPERNIA,20.5,50.53333333,7,221,118,1,250200150
1421360,95632,BALICE,20.85,50.55,7,221,118,1,250209983
1421361,95633,SĘDZISZÓW,20.05,50.56666667,7,221,118,1,250200140
1421362,95634,KLISZÓW,20.53333333,50.61666667,7,221,118,1,250200130
1421363,95635,CHMIELNIK,20.76666667,50.61666667,7,221,118,1,250209995
1421364,95637,NAGŁOWICE,20.11666667,50.68333333,7,221,118,1,250209996
1421365,95638,OKSA,20.1,50.73333333,7,221,118,1,250209997
1421366,95639,MNISZEK,20.28333333,50.73333333,7,221,118,1,250209982
1421367,95642,KONIECZNO,20.05,50.8,7,221,118,1,250200090
1421368,95643,DALESZYCE,20.81666667,50.8,7,221,118,1,250209998
1421369,95644,MAŁOGOSZCZ,20.28333333,50.81666667,7,221,118,1,250200080
1421370,95646,BIELINY KAPITULNE,20.93333333,50.85,7,221,118,1,250200060
1421371,95647,RYKOSZYN,20.4,50.86666667,7,221,118,1,250200050
1421372,95648,KRASOCIN,20.11666667,50.9,7,221,118,1,250209981
1421373,95651,SNOCHOWICE,20.33333333,50.95,7,221,118,1,250209999
1421374,95652,OBLĘGÓR,20.46666667,50.96666667,7,221,118,1,250200030
1421375,95653,BARTKÓW,20.65,50.98333333,7,221,118,1,250200010
1421376,95656,SIEKIERNO,20.93333333,50.98333333,7,221,118,1,250200020
1421377,95657,WYMYSŁÓW,20.1,50.83333333,7,221,118,1,250200070
1421378,95658,CISÓW,20.9,50.76666667,7,221,118,1,250200110
1421379,95661,SZANIEC,20.7,50.53333333,7,221,118,1,250200160
1421380,95663,POSZYNA (KŁAJ),20.36666667,50.05,7,221,118,1,250209984
1421381,95664,DĄBROWA TARNOWSKA,20.99111111,50.18611111,7,221,118,1,250200360
1421382,95665,OBLĘGOREK,20.49444444,50.95861111,7,221,118,1,250200350
1421383,95704,DĘBICA,21.41666667,50.05,7,221,118,1,250219983
1421384,95705,CZARNA,21.25,50.06666667,7,221,118,1,250219984
1421385,95706,ROPCZYCE,21.6,50.06666667,7,221,118,1,250210250
1421386,95707,LISIA GÓRA,21.03333333,50.08333333,7,221,118,1,250219986
1421387,95708,MIŁOCIN,21.98333333,50.08333333,7,221,118,1,250219985
1421388,95710,BRZEŹNICA N/WISŁOKĄ,21.48333333,50.1,7,221,118,1,250219987
1421389,95715,RADOMYŚL WIELKI,21.3,50.2,7,221,118,1,250210230
1421390,95720,WOLA WADOWSKA,21.21666667,50.26666667,7,221,118,1,250219989
1421391,95722,SZCZUCIN,21.06666667,50.31666667,7,221,118,1,250210190
1421392,95723,OSTROWY TUSZOWSKIE,21.63333333,50.31666667,7,221,118,1,250219991
1421393,95725,BUDY TUSZOWSKIE,21.66666667,50.38333333,7,221,118,1,250219992
1421394,95726,GAWŁUSZOWICE,21.38333333,50.41666667,7,221,118,1,250219982
1421395,95728,KWASÓW,21.03333333,50.43333333,7,221,118,1,250219993
1421396,95729,STANY,21.96666667,50.43333333,7,221,118,1,250219981
1421397,95733,BARANÓW SANDOMIERSKI,21.53333333,50.5,7,221,118,1,250210150
1421398,95735,SUCHOWOLA,21.38333333,50.53333333,7,221,118,1,250219995
1421399,95736,GRĘBÓW,21.88333333,50.56666667,7,221,118,1,250219996
1421400,95737,SZYDŁÓW,21.0025,50.59222222,7,221,118,1,250210140
1421401,95739,KLIMONTÓW,21.45,50.66666667,7,221,118,1,250210120
1421402,95740,RAKÓW,21.05,50.68333333,7,221,118,1,250210110
1421403,95745,SADKÓW,21.08333333,50.73333333,7,221,118,1,250210080
1421404,95748,ZAWICHOST,21.86666667,50.8,7,221,118,1,250219998
1421405,95750,NOWA SŁUPIA,21.08333333,50.86666667,7,221,118,1,250210040
1421406,95751,ANNOPOL,21.83333333,50.88333333,7,221,118,1,250210030
1421407,95752,NOSÓW,21.21666667,50.91666667,7,221,118,1,250210020
1421408,95753,OSTROWIEC ŚWIĘTOKRZYSKI,21.43333333,50.93333333,7,221,118,1,250210010
1421409,95754,BARANÓWEK,21.25,50.78333333,7,221,118,1,250210070
1421410,95755,KRĘPA GÓRNA,21.35,50.73333333,7,221,118,1,250219997
1421411,95761,KOLBUSZOWA,21.8,50.23333333,7,221,118,1,250210220
1421412,95762,JASTRZĘBSKA WOLA,21.18333333,50.71666667,7,221,118,1,250210090
1421413,95764,BOGUSŁAWICE,21.41111111,50.83833333,7,221,118,1,250210060
1421414,95765,MIELEC,21.41666667,50.28333333,7,221,118,1,250210210
1421415,95801,JAROSŁAW,22.68333333,50.03333333,7,221,118,1,250220210
1421416,95802,LASZKI,22.9,50.03333333,7,221,118,1,250229992
1421417,95805,ŁAŃCUT,22.23333333,50.08333333,7,221,118,1,250220190
1421418,95807,RADAWA,22.76666667,50.13333333,7,221,118,1,250220180
1421419,95808,GRODZISKO DOLNE,22.45,50.16666667,7,221,118,1,250220170
1421420,95812,STARY DZIKÓW,22.93333333,50.25,7,221,118,1,250229994
1421421,95813,CIEPLICE,22.6,50.26666667,7,221,118,1,250220160
1421422,95817,OBSZA,22.96666667,50.31666667,7,221,118,1,250229996
1421423,95819,SARZYNA,22.33333333,50.35,7,221,118,1,250229989
1421424,95824,RUDNIK,22.25,50.43333333,7,221,118,1,250229997
1421425,95825,ZWOLAKI,22.33333333,50.5,7,221,118,1,250229998
1421426,95829,STALOWA WOLA,22.03333333,50.6,7,221,118,1,250220090
1421427,95832,ZWIERZYNIEC,22.83333333,50.61666667,7,221,118,1,250220110
1421428,95835,FRAMPOL,22.66666667,50.66666667,7,221,118,1,250220080
1421429,95836,LIPA,22.1,50.7,7,221,118,1,250229999
1421430,95838,JANÓW LUBELSKI,22.41666667,50.71666667,7,221,118,1,250220070
1421431,95839,ZAKLIKÓW,22.1,50.75,7,221,118,1,250220060
1421432,95841,ZAKŁODZIE,22.86055556,50.7575,7,221,118,1,250220050
1421433,95842,TUROBIN,22.75,50.81666667,7,221,118,1,250220040
1421434,95844,BATORZ,22.5,50.83333333,7,221,118,1,250229988
1421435,95848,KRAŚNIK LUBELSKI,22.26666667,50.93333333,7,221,118,1,250229987
1421436,95849,ZAKRZÓWEK,22.38333333,50.95,7,221,118,1,250220020
1421437,95850,PILASZKOWICE,22.84361111,50.98861111,7,221,118,1,250220010
1421438,95851,RUDA ŁAŃCUCKA,22.33333333,50.35,7,221,118,1,250220150
1421439,95901,WIELKIE OCZY,23.16666667,50.03333333,7,221,118,1,250230140
1421440,95903,FUTORY,23.05,50.2,7,221,118,1,250230130
1421441,95905,RUDA RÓŻANIECKA,23.18333333,50.31666667,7,221,118,1,250230110
1421442,95907,NAROL,23.33333333,50.35,7,221,118,1,250230090
1421443,95908,BEŁŻEC,23.43333333,50.38333333,7,221,118,1,250239995
1421444,95909,SKWARKI,23.23333333,50.41666667,7,221,118,1,250239996
1421445,95910,TARNOSZYN,23.8,50.41666667,7,221,118,1,250230080
1421446,95911,JÓZEFÓW,23.05,50.48333333,7,221,118,1,250230060
1421447,95914,MAJDAN WIELKI,23.28333333,50.55,7,221,118,1,250239993
1421448,95915,POTURZYN,23.93333333,50.56666667,7,221,118,1,250230050
1421449,95917,PRZEWALE,23.61666667,50.61666667,7,221,118,1,250230040
1421450,95924,HRUBIESZÓW,23.88333333,50.8,7,221,118,1,250239997
1421451,95925,WÓLKA NIELISKA,23.1,50.8,7,221,118,1,250239998
1421452,95926,GRABOWIEC,23.53333333,50.81666667,7,221,118,1,250239999
1421453,95927,STRZYŻÓW,24.03333333,50.85,7,221,118,1,250249999
1421454,95928,SKIERBIESZÓW,23.36666667,50.85,7,221,118,1,250230010
1421455,95931,WOJSŁAWICE,23.56666667,50.91666667,7,221,118,1,250239992
1421456,95932,GORZKÓW,23.01666667,50.95,7,221,118,1,250239991
1421457,95950,ZAMOŚĆ,23.25527778,50.70694444,7,221,118,1,250230150
1421458,96401,KONIAKÓW,18.95,49.55,7,221,118,1,249189993
1421459,96402,ISTEBNA-WIEŚ,18.9,49.56666667,7,221,118,1,249180290
1421460,96403,ISTEBNA-MŁODA GÓRA,18.86666667,49.58333333,7,221,118,1,249180270
1421461,96404,ISTEBNA-STECÓWKA,18.93833333,49.58527778,7,221,118,1,249180280
1421462,96405,WISŁA-STOŻEK,18.83333333,49.6,7,221,118,1,249189992
1421463,96407,WISŁA-GŁĘBCE,18.88333333,49.63333333,7,221,118,1,249180250
1421464,96408,WISŁA-MALINKA,18.96833333,49.64527778,7,221,118,1,249180240
1421465,96410,USTROŃ-RÓWNICA-WIEŚ,18.85,49.71666667,7,221,118,1,249180180
1421466,96411,USTROŃ-RÓWNICA-SCHRONISKO,18.85222222,49.71555556,7,221,118,1,249189991
1421467,96413,GÓRKI WIELKIE,18.85,49.76666667,7,221,118,1,249180140
1421468,96415,WAPIENICA,18.97333333,49.77361111,7,221,118,1,249189995
1421469,96416,SKOCZÓW,18.795,49.79888889,7,221,118,1,249180120
1421470,96418,KACZYCE,18.61666667,49.83333333,7,221,118,1,249180110
1421471,96419,OCHABY,18.76666667,49.85,7,221,118,1,249180080
1421472,96420,RUDZICA,18.88333333,49.85,7,221,118,1,249180090
1421473,96421,MAZAŃCOWICE,19.0,49.86666667,7,221,118,1,249180070
1421474,96424,CHAŁUPKI,18.31666667,49.93333333,7,221,118,1,249180030
1421475,96426,GOCZAŁKOWICE-ZDRÓJ,18.98333333,49.93333333,7,221,118,1,249180050
1421476,96428,WISŁA WIELKA,18.85,49.95,7,221,118,1,249180040
1421477,96429,MSZANA,18.55,49.96666667,7,221,118,1,249189999
1421478,96432,WARSZOWICE,18.7,49.98333333,7,221,118,1,249180020
1421479,96433,BRENNA,18.86666667,49.75,7,221,118,1,249189994
1421480,96450,BRENNA-LEŚNICA,18.9,49.71666667,7,221,118,1,249180190
1421481,96452,GOŁKOWICE,18.5,49.91666667,7,221,118,1,249180060
1421482,96454,WISŁA-JAWORNIK,18.83027778,49.65972222,7,221,118,1,249180540
1421483,96455,ISTEBNA,18.89416667,49.57166667,7,221,118,1,249180560
1421484,96457,KICZYCE,18.79972222,49.82166667,7,221,118,1,249180630
1421485,96507,KOŚCIELISKO-KIRY,19.86666667,49.26666667,7,221,118,1,249190660
1421486,96509,NOWE BYSTRE,19.91666667,49.33333333,7,221,118,1,249190640
1421487,96510,BAŃSKA WYŻNA,19.98333333,49.4,7,221,118,1,249190620
1421488,96511,RYCERKA GÓRNA,19.01666667,49.41666667,7,221,118,1,249190580
1421489,96512,CHYŻNE,19.71666667,49.41666667,7,221,118,1,249190590
1421490,96513,SMEREKÓW MAŁY,19.05,49.45,7,221,118,1,249190570
1421491,96514,PIEKŁO,19.0,49.51666667,7,221,118,1,249199985
